{
  "count": 569,
  "next": "https://goriva.si/api/v1/search/?format=json&franchise=&name=&o=&page=17&position=&radius=",
  "previous": "https://goriva.si/api/v1/search/?format=json&franchise=&name=&o=&page=15&position=&radius=",
  "results": [
    {
      "pk": 2256,
      "franchise": 3,
      "name": "BS MAXEN KRANJ",
      "address": "Cesta Staneta Žagarja bš",
      "lat": 46.24224,
      "lng": 14.3774704,
      "prices": {
        "95": 1.379,
        "dizel": 1.418,
        "98": null,
        "100": null,
        "dizel-premium": null,
        "avtoplin-lpg": null,
        "KOEL": null
      },
      "distance": null,
      "direction": "",
      "open_hours": "24/7",
      "zip_code": "4000"
    },
    {
      "pk": 2257,
      "franchise": 3,
      "name": "BS MAXEN AJDOVŠČINA",
      "address": "Vipavska cesta bš",
      "lat": 45.8809344,
      "lng": 13.9107888,
      "prices": {
        "95": 1.379,
        "dizel": 1.418,
        "98": null,
        "100": null,
        "dizel-premium": null,
        "avtoplin-lpg": null,
        "KOEL": null
      },
      "distance": null,
      "direction": "",
      "open_hours": "24/7",
      "zip_code": "5270"
    },
    {
      "pk": 2266,
      "franchise": 5,
      "name": "SHELL MARIBOR RETAIL",
      "address": "TURNEJEVA ULICA 35",
      "lat": 46.449892,
      "lng": 15.651698,
      "prices": {
        "95": 1.379,
        "dizel": 1.418,
        "98": null,
        "100": 1.678,
        "dizel-premium": null,
        "avtoplin-lpg": null,
        "KOEL": null
      },
      "distance": null,
      "direction": "",
      "open_hours": "24 ur - črpalka z osebjem",
      "zip_code": "2313"
    },
    {
      "pk": 2267,
      "franchise": 6,
      "name": "EKO-NAFTA d.o.o.",
      "address": "Trimlini 65A, 9220 Lendava - Lendva",
      "lat": 46.5429019,
      "lng": 16.4429144,
      "prices": {
        "95": 1.379,
        "dizel": 1.418,
        "98": null,
        "100": 1.631,
        "dizel-premium": null,
        "avtoplin-lpg": null,
        "KOEL": 1.07
      },
      "distance": null,
      "direction": "",
      "open_hours": "Ponedeljek-petek\r\n6:00-17:00\r\n\r\nSobota, nedelja, prazniki\r\nZaprto",
      "zip_code": "9220"
    },
    {
      "pk": 2268,
      "franchise": 9,
      "name": "BS Pesniška vrata",
      "address": "Pesnica pri Mariboru 32e",
      "lat": 46.601243,
      "lng": 15.674333,
      "prices": {
        "95": 1.379,
        "dizel": 1.418,
        "98": 1.631,
        "100": 1.631,
        "dizel-premium": null,
        "avtoplin-lpg": null,
        "KOEL": 1.07
      },
      "distance": null,
      "direction": "",
      "open_hours": "ponedeljek - petek: 6-22\r\nsobota: 7-22\r\nnedelja in praznik: 8-20",
      "zip_code": "2211"
    },
    {
      "pk": 2271,
      "franchise": 2,
      "name": "BS MOL MARIBOR STUDENCI",
      "address": "Ulica heroja Šercerja 60",
      "lat": 46.548645,
      "lng": 15.620617,
      "prices": {
        "95": 1.379,
        "dizel": 1.418,
        "98": null,
        "100": 1.631,
        "dizel-premium": 1.766,
        "avtoplin-lpg": 0.828,
        "KOEL": null
      },
      "distance": null,
      "direction": "Maribor",
      "open_hours": "Pon-Pet 05:00-22:00; Sob, Ned, Praz. 06:00-22:00",
      "zip_code": "2000"
    },
    {
      "pk": 2272,
      "franchise": 1,
      "name": "PETROL BLED - SELIŠKA",
      "address": "SELIŠKA CESTA 4C",
      "lat": 46.370163,
      "lng": 14.116395,
      "prices": {
        "95": 1.379,
        "dizel": 1.418,
        "98": null,
        "100": 1.631,
        "dizel-premium": 1.81,
        "avtoplin-lpg": 0.829,
        "KOEL": null
      },
      "distance": null,
      "direction": "",
      "open_hours": "vsak delavnik 06:00-21:00\r\nsobote 06:00-21:00\r\nnedelje in prazniki 06:00-21:00",
      "zip_code": "4260"
    },
    {
      "pk": 2288,
      "franchise": 13,
      "name": "BS MOL PAY&GO TRŽIČ",
      "address": "Cesta Ste Marie aux mines 7",
      "lat": 46.358642,
      "lng": 14.298618,
      "prices": {
        "95": 1.379,
        "dizel": 1.418,
        "98": null,
        "100": null,
        "dizel-premium": null,
        "avtoplin-lpg": null,
        "KOEL": null
      },
      "distance": null,
      "direction": "",
      "open_hours": "ZIMSKI OBRATOVALNI ČAS: \r\n01.11. - 31.3. \r\nPON - SOB : 05.00 - 22.00\r\nNED: 08.00 - 15.00 \r\n\r\nLETNI OBRATOVALNI ČAS: \r\n01.04. - 31.10. \r\nPON - NED : 00.00 - 24.00",
      "zip_code": "4290"
    },
    {
      "pk": 2289,
      "franchise": 13,
      "name": "BS MOL PAY&GO KRANJ",
      "address": "Šuceva ulica 23 a",
      "lat": 46.246355,
      "lng": 14.378,
      "prices": {
        "95": 1.379,
        "dizel": 1.418,
        "98": null,
        "100": null,
        "dizel-premium": null,
        "avtoplin-lpg": null,
        "KOEL": null
      },
      "distance": null,
      "direction": "",
      "open_hours": "ZIMSKI OBRATOVALNI ČAS: \r\n01.11. - 31.3. \r\nPON - SOB : 05.00 - 22.00\r\nNED: 08.00 - 15.00 \r\n\r\nLETNI OBRATOVALNI ČAS: \r\n01.04. - 31.10. \r\nPON - NED : 00.00 - 24.00",
      "zip_code": "4000"
    },
    {
      "pk": 2290,
      "franchise": 13,
      "name": "BS MOL PAY&GO MEDVODE",
      "address": "Gorenjska cesta 12",
      "lat": 46.136526,
      "lng": 14.417849,
      "prices": {
        "95": 1.379,
        "dizel": 1.418,
        "98": null,
        "100": null,
        "dizel-premium": null,
        "avtoplin-lpg": null,
        "KOEL": null
      },
      "distance": null,
      "direction": "",
      "open_hours": "ZIMSKI OBRATOVALNI ČAS: \r\n01.11. - 31.3. \r\nPON - SOB : 05.00 - 22.00\r\nNED: 08.00 - 15.00 \r\n\r\nLETNI OBRATOVALNI ČAS: \r\n01.04. - 31.10. \r\nPON - NED : 00.00 - 24.00",
      "zip_code": "1215"
    },
    {
      "pk": 2291,
      "franchise": 13,
      "name": "BS MOL PAY&GO LJUBLJANA TOPLARNIŠKA",
      "address": "Toplarniška ulica 4",
      "lat": 46.056904,
      "lng": 14.541465,
      "prices": {
        "95": 1.379,
        "dizel": 1.418,
        "98": null,
        "100": null,
        "dizel-premium": null,
        "avtoplin-lpg": null,
        "KOEL": null
      },
      "distance": null,
      "direction": "",
      "open_hours": "ZIMSKI OBRATOVALNI ČAS: \r\n01.11. - 31.3. \r\nPON - SOB : 05.00 - 22.00\r\nNED: 08.00 - 15.00 \r\n\r\nLETNI OBRATOVALNI ČAS: \r\n01.04. - 31.10. \r\nPON - NED : 00.00 - 24.00",
      "zip_code": "1000"
    },
    {
      "pk": 2292,
      "franchise": 13,
      "name": "BS MOL PAY&GO LJUBLJANA TRŽAŠKA",
      "address": "Tržaška 429",
      "lat": 46.027435,
      "lng": 14.4353,
      "prices": {
        "95": 1.379,
        "dizel": 1.418,
        "98": null,
        "100": null,
        "dizel-premium": null,
        "avtoplin-lpg": null,
        "KOEL": null
      },
      "distance": null,
      "direction": "",
      "open_hours": "ZIMSKI OBRATOVALNI ČAS: \r\n01.11. - 31.3. \r\nPON - SOB : 05.00 - 22.00\r\nNED: 08.00 - 15.00 \r\n\r\nLETNI OBRATOVALNI ČAS: \r\n01.04. - 31.10. \r\nPON - NED : 00.00 - 24.00",
      "zip_code": "1000"
    },
    {
      "pk": 2293,
      "franchise": 13,
      "name": "BS MOL PAY&GO IVANČNA GORICA",
      "address": "Cesta 2. grupe odredov 4",
      "lat": 45.936326,
      "lng": 14.805261,
      "prices": {
        "95": 1.379,
        "dizel": 1.418,
        "98": null,
        "100": null,
        "dizel-premium": null,
        "avtoplin-lpg": null,
        "KOEL": null
      },
      "distance": null,
      "direction": "",
      "open_hours": "ZIMSKI OBRATOVALNI ČAS: \r\n01.11. - 31.3. \r\nPON - SOB : 05.00 - 22.00\r\nNED: 08.00 - 15.00 \r\n\r\nLETNI OBRATOVALNI ČAS: \r\n01.04. - 31.10. \r\nPON - NED : 00.00 - 24.00",
      "zip_code": "1295"
    },
    {
      "pk": 2294,
      "franchise": 13,
      "name": "BS MOL PAY&GO POSTOJNA",
      "address": "Industrijska cesta 4",
      "lat": 45.769831,
      "lng": 14.197979,
      "prices": {
        "95": 1.379,
        "dizel": 1.418,
        "98": null,
        "100": null,
        "dizel-premium": null,
        "avtoplin-lpg": null,
        "KOEL": null
      },
      "distance": null,
      "direction": "",
      "open_hours": "ZIMSKI OBRATOVALNI ČAS: \r\n01.11. - 31.3. \r\nPON - SOB : 05.00 - 22.00\r\nNED: 08.00 - 15.00 \r\n\r\nLETNI OBRATOVALNI ČAS: \r\n01.04. - 31.10. \r\nPON - NED : 00.00 - 24.00",
      "zip_code": "6230"
    },
    {
      "pk": 2295,
      "franchise": 13,
      "name": "BS MOL PAY&GO ILIRSKA BISTRICA",
      "address": "Vilharjeva cesta 58",
      "lat": 45.576279,
      "lng": 14.23011,
      "prices": {
        "95": 1.379,
        "dizel": 1.418,
        "98": null,
        "100": null,
        "dizel-premium": null,
        "avtoplin-lpg": null,
        "KOEL": null
      },
      "distance": null,
      "direction": "",
      "open_hours": "ZIMSKI OBRATOVALNI ČAS: \r\n01.11. - 31.3. \r\nPON - SOB : 05.00 - 22.00\r\nNED: 08.00 - 15.00 \r\n\r\nLETNI OBRATOVALNI ČAS: \r\n01.04. - 31.10. \r\nPON - NED : 00.00 - 24.00",
      "zip_code": "6250"
    },
    {
      "pk": 2297,
      "franchise": 16,
      "name": "Agas Maribor",
      "address": "Perhavčeva ulica 15",
      "lat": 46.525107,
      "lng": 15.667885,
      "prices": {
        "95": 1.379,
        "dizel": 1.418,
        "98": null,
        "100": null,
        "dizel-premium": null,
        "avtoplin-lpg": 0.79,
        "KOEL": 1.07
      },
      "distance": null,
      "direction": "Maribor Center",
      "open_hours": "Pon do Pet 7:00 - 20:00\r\nSob             8:00 - 13:00",
      "zip_code": "2000"
    },
    {
      "pk": 2299,
      "franchise": 16,
      "name": "Agas Slovenska Bistrica",
      "address": "Žolgarjeva ulica 25",
      "lat": 46.385204,
      "lng": 15.576529,
      "prices": {
        "95": 1.379,
        "dizel": 1.418,
        "98": null,
        "100": null,
        "dizel-premium": null,
        "avtoplin-lpg": 0.79,
        "KOEL": 1.07
      },
      "distance": null,
      "direction": "Izvoz Slovenska Bistrica jug",
      "open_hours": "Pon do Pet 7:00 - 20:00\r\nSob             8:00 - 13:00",
      "zip_code": "2310"
    },
    {
      "pk": 2302,
      "franchise": 19,
      "name": "LOGO BENCINSKI SERVISI d.o.o. PE BREZOVICA",
      "address": "Tržaška cesta 358",
      "lat": 46.026026,
      "lng": 14.4284534,
      "prices": {
        "95": 1.379,
        "dizel": 1.418,
        "98": null,
        "100": null,
        "dizel-premium": null,
        "avtoplin-lpg": null,
        "KOEL": 1.07
      },
      "distance": null,
      "direction": "",
      "open_hours": "6.00-22.30",
      "zip_code": "1351"
    },
    {
      "pk": 2303,
      "franchise": 19,
      "name": "Bencinski servis Tupaliče",
      "address": "Tupaliče 35a",
      "lat": 46.2955877,
      "lng": 14.4297645,
      "prices": {
        "95": 1.379,
        "dizel": 1.418,
        "98": null,
        "100": null,
        "dizel-premium": null,
        "avtoplin-lpg": null,
        "KOEL": 1.07
      },
      "distance": null,
      "direction": "",
      "open_hours": "Vsak dan od 6.00-21.00\r\nNedelja od 7.00-22.00",
      "zip_code": "4205"
    },
    {
      "pk": 2304,
      "franchise": 19,
      "name": "Bencinski servis Velika Pirešica",
      "address": "Velika Pirešica 60",
      "lat": 46.28633117675781,
      "lng": 15.176063537597656,
      "prices": {
        "95": 1.379,
        "dizel": 1.418,
        "98": 1.63,
        "100": 1.819,
        "dizel-premium": null,
        "avtoplin-lpg": null,
        "KOEL": 1.07
      },
      "distance": null,
      "direction": "",
      "open_hours": "6.00-22.00",
      "zip_code": "3310"
    },
    {
      "pk": 2305,
      "franchise": 19,
      "name": "Bencinski servis Škofja Loka",
      "address": "Grenc 57",
      "lat": 46.1730598,
      "lng": 14.3212867,
      "prices": {
        "95": 1.379,
        "dizel": 1.418,
        "98": null,
        "100": null,
        "dizel-premium": null,
        "avtoplin-lpg": 0.78,
        "KOEL": 1.07
      },
      "distance": null,
      "direction": "",
      "open_hours": "6.00-22.00",
      "zip_code": "4220"
    },
    {
      "pk": 2306,
      "franchise": 19,
      "name": "Bencinski servis Juršinci",
      "address": "Juršinci 81a",
      "lat": 46.4832476,
      "lng": 15.965107,
      "prices": {
        "95": 1.379,
        "dizel": 1.418,
        "98": null,
        "100": null,
        "dizel-premium": null,
        "avtoplin-lpg": null,
        "KOEL": 1.07
      },
      "distance": null,
      "direction": "",
      "open_hours": "Vsak dan od 6.00 do 21.00\r\nNedelja 7.00 do 17.00",
      "zip_code": "2256"
    },
    {
      "pk": 2307,
      "franchise": 19,
      "name": "Bencinski servis Sodražica",
      "address": "cesta Notranjskega odreda 56",
      "lat": 45.76375961303711,
      "lng": 14.63137435913086,
      "prices": {
        "95": 1.379,
        "dizel": 1.418,
        "98": null,
        "100": null,
        "dizel-premium": null,
        "avtoplin-lpg": null,
        "KOEL": 1.07
      },
      "distance": null,
      "direction": "",
      "open_hours": "5.30-22.00",
      "zip_code": "1317"
    },
    {
      "pk": 2316,
      "franchise": 23,
      "name": "BS Žihlava",
      "address": "Žihlava 15",
      "lat": 46.55,
      "lng": 16.0396,
      "prices": {
        "95": 1.379,
        "dizel": 1.418,
        "98": null,
        "100": null,
        "dizel-premium": null,
        "avtoplin-lpg": null,
        "KOEL": null
      },
      "distance": null,
      "direction": "Gornja Radgona - Ljutomer",
      "open_hours": "ponedeljek: 6.00 - 20.00\r\ntorek:          6.00 - 20.00\r\nsreda:          6.00 - 20.00\r\nčetrtek:        6.00 - 20.00\r\npetek:          6.00 - 20.00\r\nsobota:        6.00 - 20.00\r\nnedelja:       7.00 - 16.00\r\nprazniki:      7.00 - 16.00",
      "zip_code": "9244"
    },
    {
      "pk": 2317,
      "franchise": 23,
      "name": "BS Lemerje",
      "address": "Lemerje 2",
      "lat": 46.7094,
      "lng": 16.1102,
      "prices": {
        "95": 1.379,
        "dizel": 1.418,
        "98": null,
        "100": null,
        "dizel-premium": null,
        "avtoplin-lpg": null,
        "KOEL": null
      },
      "distance": null,
      "direction": "Murska Sobota - Grad (Kuzma)",
      "open_hours": "ponedeljek: 6.00 - 20.00\r\ntorek:          6.00 - 20.00\r\nsreda:          6.00 - 20.00\r\nčetrtek:        6.00 - 20.00\r\npetek:          6.00 - 20.00\r\nsobota:        6.00 - 20.00\r\nnedelja:       7.00 - 16.00\r\nprazniki:      7.00 - 16.00",
      "zip_code": "9201"
    }
  ],
  "position": null
}
