{
  "count": 552,
  "next": "https://goriva.si/api/v1/search/?format=json&franchise=&name=&o=&page=23&position=&radius=",
  "previous": "https://goriva.si/api/v1/search/?format=json&franchise=&name=&o=&page=21&position=&radius=",
  "results": [
    {
      "pk": 2158,
      "franchise": 1,
      "name": "PETROL ČRNOMELJ - KOČEVJE",
      "address": "KOČEVJE 22B",
      "lat": 45.56606773,
      "lng": 15.17772212,
      "prices": {
        "95": null,
        "dizel": null,
        "98": null,
        "100": null,
        "dizel-premium": null,
        "avtoplin-lpg": null,
        "KOEL": null,
        "hvo": null,
        "cng": null,
        "lng": null
      },
      "distance": null,
      "direction": "",
      "open_hours": "Začasno zaprto do 23. februar 2026",
      "zip_code": "8340"
    },
    {
      "pk": 2187,
      "franchise": 1,
      "name": "PETROL ŠEMPETER V SAVINJSKI DOLINI",
      "address": "RIMSKA CESTA 106",
      "lat": 46.25830238,
      "lng": 15.11406404,
      "prices": {
        "95": null,
        "dizel": null,
        "98": null,
        "100": null,
        "dizel-premium": null,
        "avtoplin-lpg": null,
        "KOEL": null,
        "hvo": null,
        "cng": null,
        "lng": null
      },
      "distance": null,
      "direction": "",
      "open_hours": "Začasno zaprto do 23. februar 2026",
      "zip_code": "3311"
    },
    {
      "pk": 2221,
      "franchise": 1,
      "name": "PETROL ŽLEBIČ",
      "address": "BREŽE 1B",
      "lat": 45.76220176,
      "lng": 14.70303872,
      "prices": {
        "95": null,
        "dizel": null,
        "98": null,
        "100": null,
        "dizel-premium": null,
        "avtoplin-lpg": null,
        "KOEL": null,
        "hvo": null,
        "cng": null,
        "lng": null
      },
      "distance": null,
      "direction": "",
      "open_hours": "Začasno zaprto do 23. februar 2026",
      "zip_code": "1310"
    },
    {
      "pk": 2258,
      "franchise": 5,
      "name": "SHELL KOPER",
      "address": "SERMIN 7C",
      "lat": 45.552486,
      "lng": 13.762092,
      "prices": {
        "95": null,
        "dizel": 1.462,
        "98": null,
        "100": null,
        "dizel-premium": null,
        "avtoplin-lpg": null,
        "KOEL": null,
        "hvo": null,
        "cng": null,
        "lng": null
      },
      "distance": null,
      "direction": "",
      "open_hours": "24 ur - črpalka brez osebja",
      "zip_code": "6000"
    },
    {
      "pk": 2259,
      "franchise": 5,
      "name": "SHELL AJDOVŠČINA",
      "address": "MIRCE 20",
      "lat": 45.883317,
      "lng": 13.891954,
      "prices": {
        "95": null,
        "dizel": 1.462,
        "98": null,
        "100": null,
        "dizel-premium": null,
        "avtoplin-lpg": null,
        "KOEL": null,
        "hvo": null,
        "cng": null,
        "lng": null
      },
      "distance": null,
      "direction": "",
      "open_hours": "24 ur - črpalka brez osebja",
      "zip_code": "5270"
    },
    {
      "pk": 2260,
      "franchise": 5,
      "name": "SHELL SEŽANA",
      "address": "PARTIZANSKA CESTA 79",
      "lat": 45.703002,
      "lng": 13.850927,
      "prices": {
        "95": null,
        "dizel": 1.462,
        "98": null,
        "100": null,
        "dizel-premium": null,
        "avtoplin-lpg": null,
        "KOEL": null,
        "hvo": null,
        "cng": null,
        "lng": null
      },
      "distance": null,
      "direction": "",
      "open_hours": "24 ur - črpalka brez osebja",
      "zip_code": "6210"
    },
    {
      "pk": 2261,
      "franchise": 5,
      "name": "SHELL VRTOJBA",
      "address": "IC POLJE",
      "lat": 45.921155,
      "lng": 13.634505,
      "prices": {
        "95": null,
        "dizel": 1.462,
        "98": null,
        "100": null,
        "dizel-premium": null,
        "avtoplin-lpg": null,
        "KOEL": null,
        "hvo": null,
        "cng": null,
        "lng": null
      },
      "distance": null,
      "direction": "",
      "open_hours": "24 ur - črpalka brez osebja",
      "zip_code": "5290"
    },
    {
      "pk": 2262,
      "franchise": 5,
      "name": "SHELL BIČ",
      "address": "BIČ 11",
      "lat": 45.924703,
      "lng": 14.889676,
      "prices": {
        "95": null,
        "dizel": 1.462,
        "98": null,
        "100": null,
        "dizel-premium": null,
        "avtoplin-lpg": null,
        "KOEL": null,
        "hvo": null,
        "cng": null,
        "lng": null
      },
      "distance": null,
      "direction": "",
      "open_hours": "24 ur - črpalka brez osebja",
      "zip_code": "8213"
    },
    {
      "pk": 2263,
      "franchise": 5,
      "name": "SHELL ŠENČUR",
      "address": "POSLOVNA CONA 12A",
      "lat": 46.245779,
      "lng": 14.410096,
      "prices": {
        "95": null,
        "dizel": 1.462,
        "98": null,
        "100": null,
        "dizel-premium": null,
        "avtoplin-lpg": null,
        "KOEL": null,
        "hvo": null,
        "cng": null,
        "lng": null
      },
      "distance": null,
      "direction": "",
      "open_hours": "24 ur - črpalka brez osebja",
      "zip_code": "4208"
    },
    {
      "pk": 2264,
      "franchise": 5,
      "name": "SHELL JESENICE",
      "address": "SPODNJI PLAVZ 6B",
      "lat": 46.444186,
      "lng": 14.026966,
      "prices": {
        "95": null,
        "dizel": 1.462,
        "98": null,
        "100": null,
        "dizel-premium": null,
        "avtoplin-lpg": null,
        "KOEL": null,
        "hvo": null,
        "cng": null,
        "lng": null
      },
      "distance": null,
      "direction": "",
      "open_hours": "24 ur - črpalka brez osebja",
      "zip_code": "4270"
    },
    {
      "pk": 2265,
      "franchise": 5,
      "name": "SHELL TRUCK CENTER MARIBOR FRAM",
      "address": "TURNEJEVA ULICA 35",
      "lat": 46.449892,
      "lng": 15.651698,
      "prices": {
        "95": null,
        "dizel": 1.462,
        "98": null,
        "100": null,
        "dizel-premium": null,
        "avtoplin-lpg": null,
        "KOEL": null,
        "hvo": null,
        "cng": null,
        "lng": null
      },
      "distance": null,
      "direction": "",
      "open_hours": "24 ur - črpalka brez osebja",
      "zip_code": "2313"
    },
    {
      "pk": 2270,
      "franchise": 10,
      "name": "Butan plin - črpalka avtoplina v Izoli",
      "address": "Polje 6a",
      "lat": 45.537987,
      "lng": 13.670166,
      "prices": {
        "95": null,
        "dizel": null,
        "98": null,
        "100": null,
        "dizel-premium": null,
        "avtoplin-lpg": 0.838,
        "KOEL": null,
        "hvo": null,
        "cng": null,
        "lng": null
      },
      "distance": null,
      "direction": "",
      "open_hours": "12.08.2025 – 01.09.2026\nPonedeljek, Torek, Sreda, Četrtek, Petek\n08:00-12:00, 12:30-16:00\n",
      "zip_code": "6310"
    },
    {
      "pk": 2273,
      "franchise": 11,
      "name": "ECO OIL MARIBOR",
      "address": "ZAGREBŠKA CESTA 24",
      "lat": 46.534411,
      "lng": 15.6574563,
      "prices": {
        "95": null,
        "dizel": 1.462,
        "98": null,
        "100": null,
        "dizel-premium": null,
        "avtoplin-lpg": null,
        "KOEL": null,
        "hvo": null,
        "cng": null,
        "lng": null
      },
      "distance": null,
      "direction": "",
      "open_hours": "00:00-23:59\n",
      "zip_code": "2000"
    },
    {
      "pk": 2275,
      "franchise": 11,
      "name": "ECO OIL TURNIŠČE",
      "address": "ULICA ŠTEFANA KOVAČA",
      "lat": 46.6209381,
      "lng": 16.3199527,
      "prices": {
        "95": null,
        "dizel": 1.462,
        "98": null,
        "100": null,
        "dizel-premium": null,
        "avtoplin-lpg": null,
        "KOEL": null,
        "hvo": null,
        "cng": null,
        "lng": null
      },
      "distance": null,
      "direction": "",
      "open_hours": "00:00-23:59\n",
      "zip_code": "9224"
    },
    {
      "pk": 2276,
      "franchise": 11,
      "name": "ECO OIL SEŽANA",
      "address": "PARTIZANSKA CESTA",
      "lat": 45.7047532,
      "lng": 13.855647,
      "prices": {
        "95": null,
        "dizel": 1.462,
        "98": null,
        "100": null,
        "dizel-premium": null,
        "avtoplin-lpg": null,
        "KOEL": null,
        "hvo": null,
        "cng": null,
        "lng": null
      },
      "distance": null,
      "direction": "",
      "open_hours": "00:00-23:59\n",
      "zip_code": "6210"
    },
    {
      "pk": 2311,
      "franchise": 18,
      "name": "BS Merkantil KNEŽAK",
      "address": "KNEŽAK 3",
      "lat": 45.625625,
      "lng": 14.239867,
      "prices": {
        "95": null,
        "dizel": null,
        "98": null,
        "100": null,
        "dizel-premium": null,
        "avtoplin-lpg": null,
        "KOEL": null,
        "hvo": null,
        "cng": null,
        "lng": null
      },
      "distance": null,
      "direction": "",
      "open_hours": "pon - čet: 6,00 - 18,00\r\npet - sob: 6,00 - 20,00\r\nned: 7,00 - 20,00",
      "zip_code": "6253"
    },
    {
      "pk": 2312,
      "franchise": 17,
      "name": "HOJNIK Oil BS Leskovec",
      "address": "Leskovec 15",
      "lat": 46.259264,
      "lng": 15.310556,
      "prices": {
        "95": null,
        "dizel": 1.391,
        "98": null,
        "100": null,
        "dizel-premium": null,
        "avtoplin-lpg": 0.8,
        "KOEL": 1.035,
        "hvo": null,
        "cng": null,
        "lng": null
      },
      "distance": null,
      "direction": "Celje",
      "open_hours": "PON. - PET.      6.00 - 17.00        \r\nSOB.                 7.00 - 12.00\r\nNED., PRAZNIKI   ZAPRTO",
      "zip_code": "3000"
    },
    {
      "pk": 2318,
      "franchise": 24,
      "name": "PRUNK OIL",
      "address": "Mednarodni prehod 1a",
      "lat": 45.9207599,
      "lng": 13.6284418,
      "prices": {
        "95": null,
        "dizel": 1.441,
        "98": null,
        "100": null,
        "dizel-premium": null,
        "avtoplin-lpg": null,
        "KOEL": null,
        "hvo": null,
        "cng": null,
        "lng": null
      },
      "distance": null,
      "direction": "H4, izhod Vrtojba",
      "open_hours": "24/7",
      "zip_code": "5290"
    },
    {
      "pk": 2319,
      "franchise": 26,
      "name": "EKSTRA OLJE",
      "address": "Limbuška cesta 2",
      "lat": 46.559416,
      "lng": 15.597476,
      "prices": {
        "95": null,
        "dizel": 1.441,
        "98": null,
        "100": null,
        "dizel-premium": null,
        "avtoplin-lpg": null,
        "KOEL": 1.043,
        "hvo": null,
        "cng": null,
        "lng": null
      },
      "distance": null,
      "direction": "",
      "open_hours": "",
      "zip_code": "2341"
    },
    {
      "pk": 2320,
      "franchise": 25,
      "name": "URMA D.O.O.",
      "address": "DEKANI 076 E",
      "lat": 1E-15,
      "lng": -1E-15,
      "prices": {
        "95": null,
        "dizel": 1.186,
        "98": null,
        "100": null,
        "dizel-premium": null,
        "avtoplin-lpg": null,
        "KOEL": 0.95,
        "hvo": null,
        "cng": null,
        "lng": null
      },
      "distance": null,
      "direction": "",
      "open_hours": "",
      "zip_code": "6271"
    },
    {
      "pk": 2321,
      "franchise": 29,
      "name": "Mi oskrba d.o.o.",
      "address": "Hrašče 4c",
      "lat": 45.77353972485529,
      "lng": 14.16884039205976,
      "prices": {
        "95": null,
        "dizel": 1.462,
        "98": null,
        "100": null,
        "dizel-premium": null,
        "avtoplin-lpg": null,
        "KOEL": 1.068,
        "hvo": null,
        "cng": null,
        "lng": null
      },
      "distance": null,
      "direction": "",
      "open_hours": "24/7",
      "zip_code": "6230"
    },
    {
      "pk": 2322,
      "franchise": 27,
      "name": "BENCINSKI SERVIS KOVAČIČ",
      "address": "Grm 12",
      "lat": 45.89790647835315,
      "lng": 15.052119626875369,
      "prices": {
        "95": null,
        "dizel": 1.441,
        "98": null,
        "100": null,
        "dizel-premium": null,
        "avtoplin-lpg": null,
        "KOEL": null,
        "hvo": null,
        "cng": null,
        "lng": null
      },
      "distance": null,
      "direction": "",
      "open_hours": "24/7",
      "zip_code": "8210"
    },
    {
      "pk": 2326,
      "franchise": 30,
      "name": "Ka olje d.o.o.",
      "address": "ŠKOJELOŠKA CESTA 16",
      "lat": 46.1845316,
      "lng": 14.47429,
      "prices": {
        "95": null,
        "dizel": 1.441,
        "98": null,
        "100": null,
        "dizel-premium": null,
        "avtoplin-lpg": null,
        "KOEL": 1.045,
        "hvo": null,
        "cng": null,
        "lng": null
      },
      "distance": null,
      "direction": "",
      "open_hours": "pon-pet. 6.00-16.00h\r\nsob 6.00-12.00h\r\nned in prazniki zaprto",
      "zip_code": "1217"
    },
    {
      "pk": 2329,
      "franchise": 31,
      "name": "",
      "address": "Sermin 8A",
      "lat": 45.552372,
      "lng": 13.766288,
      "prices": {
        "95": null,
        "dizel": null,
        "98": null,
        "100": null,
        "dizel-premium": null,
        "avtoplin-lpg": 0.79,
        "KOEL": null,
        "hvo": null,
        "cng": null,
        "lng": null
      },
      "distance": null,
      "direction": "",
      "open_hours": "PON - PET: 7.30 - 15.30\r\n\r\nOb sobotah, nedeljah in praznikih zaprto.",
      "zip_code": "6000"
    },
    {
      "pk": 2330,
      "franchise": 31,
      "name": "",
      "address": "Plinarniška 1",
      "lat": 46.24061,
      "lng": 15.2898,
      "prices": {
        "95": null,
        "dizel": null,
        "98": null,
        "100": null,
        "dizel-premium": null,
        "avtoplin-lpg": 0.79,
        "KOEL": null,
        "hvo": null,
        "cng": null,
        "lng": null
      },
      "distance": null,
      "direction": "",
      "open_hours": "PON - PET: 7,30 - 15.30\r\n\r\nOb sobotah, nedeljah in praznikih zaprto.",
      "zip_code": "3000"
    }
  ],
  "position": null
}
