{
  "count": 552,
  "next": "https://goriva.si/api/v1/search/?format=json&franchise=&name=&o=&page=10&position=&radius=",
  "previous": "https://goriva.si/api/v1/search/?format=json&franchise=&name=&o=&page=8&position=&radius=",
  "results": [
    {
      "pk": 2011,
      "franchise": 1,
      "name": "PETROL PTUJ - ORMOŠKA 25",
      "address": "ORMOŠKA CESTA 25",
      "lat": 46.41703099,
      "lng": 15.8826979,
      "prices": {
        "95": 1.421,
        "dizel": 1.462,
        "98": null,
        "100": null,
        "dizel-premium": null,
        "avtoplin-lpg": null,
        "KOEL": 1.068,
        "hvo": null,
        "cng": null,
        "lng": null
      },
      "distance": null,
      "direction": "",
      "open_hours": "Ponedeljek, Torek, Sreda, Četrtek, Petek\n07:00-11:00, 11:30-15:00\n\nSobota\n08:00-11:30\n",
      "zip_code": "2250"
    },
    {
      "pk": 2012,
      "franchise": 1,
      "name": "PETROL HAJDOŠE",
      "address": "HAJDOŠE 43D",
      "lat": 46.42559375,
      "lng": 15.82734335,
      "prices": {
        "95": 1.421,
        "dizel": 1.462,
        "98": null,
        "100": null,
        "dizel-premium": null,
        "avtoplin-lpg": null,
        "KOEL": 1.068,
        "hvo": null,
        "cng": null,
        "lng": null
      },
      "distance": null,
      "direction": "",
      "open_hours": "Ponedeljek, Torek, Sreda, Četrtek, Petek\n07:00-20:00\n\nSobota\n07:00-19:00\n",
      "zip_code": "2288"
    },
    {
      "pk": 2013,
      "franchise": 1,
      "name": "PETROL MAJŠPERK",
      "address": "MAJŠPERK 55A",
      "lat": 46.3487854,
      "lng": 15.73672014,
      "prices": {
        "95": 1.421,
        "dizel": 1.462,
        "98": null,
        "100": null,
        "dizel-premium": null,
        "avtoplin-lpg": null,
        "KOEL": 1.068,
        "hvo": null,
        "cng": null,
        "lng": null
      },
      "distance": null,
      "direction": "",
      "open_hours": "Ponedeljek, Torek, Sreda, Četrtek, Petek\n07:00-18:00\n\nSobota\n07:00-15:00\n\nNedelja, Praznik\n08:00-11:30\n",
      "zip_code": "2322"
    },
    {
      "pk": 2014,
      "franchise": 1,
      "name": "PETROL PTUJ - ORMOŠKA 26/B",
      "address": "ORMOŠKA CESTA 26B",
      "lat": 46.41676013,
      "lng": 15.88049476,
      "prices": {
        "95": 1.421,
        "dizel": 1.462,
        "98": null,
        "100": 1.65,
        "dizel-premium": 1.858,
        "avtoplin-lpg": 0.849,
        "KOEL": 1.068,
        "hvo": null,
        "cng": null,
        "lng": null
      },
      "distance": null,
      "direction": "",
      "open_hours": "00:00-23:59\n",
      "zip_code": "2250"
    },
    {
      "pk": 2015,
      "franchise": 1,
      "name": "PETROL PTUJ - OSOJNIKOVA",
      "address": "OSOJNIKOVA CESTA 10",
      "lat": 46.42711936,
      "lng": 15.8836554,
      "prices": {
        "95": 1.421,
        "dizel": 1.462,
        "98": null,
        "100": 1.65,
        "dizel-premium": null,
        "avtoplin-lpg": null,
        "KOEL": 1.068,
        "hvo": null,
        "cng": null,
        "lng": null
      },
      "distance": null,
      "direction": "",
      "open_hours": "Ponedeljek, Torek, Sreda, Četrtek, Petek\n06:00-21:00\n\nSobota\n06:00-21:00\n\nNedelja, Praznik\n07:00-21:00\n",
      "zip_code": "2250"
    },
    {
      "pk": 2016,
      "franchise": 1,
      "name": "PETROL AJDOVŠČINA - VIPAVSKA",
      "address": "VIPAVSKA CESTA 4C",
      "lat": 45.88288,
      "lng": 13.90989,
      "prices": {
        "95": 1.421,
        "dizel": 1.462,
        "98": null,
        "100": 1.65,
        "dizel-premium": 1.858,
        "avtoplin-lpg": 0.849,
        "KOEL": null,
        "hvo": null,
        "cng": null,
        "lng": null
      },
      "distance": null,
      "direction": "",
      "open_hours": "00:00-23:59\n",
      "zip_code": "5270"
    },
    {
      "pk": 2017,
      "franchise": 1,
      "name": "PETROL DOLGA VAS",
      "address": "GLAVNA ULICA 200",
      "lat": 46.59372345,
      "lng": 16.46019878,
      "prices": {
        "95": 1.421,
        "dizel": 1.462,
        "98": null,
        "100": null,
        "dizel-premium": null,
        "avtoplin-lpg": null,
        "KOEL": 1.068,
        "hvo": null,
        "cng": null,
        "lng": null
      },
      "distance": null,
      "direction": "",
      "open_hours": "00:00-23:59\n",
      "zip_code": "9220"
    },
    {
      "pk": 2018,
      "franchise": 1,
      "name": "PETROL MURSKA SOBOTA AC - SEVER",
      "address": "BAKOVSKA ULICA 53",
      "lat": 46.635944,
      "lng": 16.166272,
      "prices": {
        "95": 1.421,
        "dizel": 1.462,
        "98": null,
        "100": 1.771,
        "dizel-premium": null,
        "avtoplin-lpg": 0.879,
        "KOEL": null,
        "hvo": null,
        "cng": null,
        "lng": null
      },
      "distance": null,
      "direction": "",
      "open_hours": "00:00-23:59\n",
      "zip_code": "9000"
    },
    {
      "pk": 2019,
      "franchise": 1,
      "name": "PETROL MURSKA SOBOTA AC - JUG",
      "address": "BAKOVSKA ULICA 51",
      "lat": 46.634461,
      "lng": 16.164346,
      "prices": {
        "95": 1.421,
        "dizel": 1.462,
        "98": null,
        "100": 1.771,
        "dizel-premium": null,
        "avtoplin-lpg": 0.879,
        "KOEL": null,
        "hvo": null,
        "cng": null,
        "lng": null
      },
      "distance": null,
      "direction": "",
      "open_hours": "00:00-23:59\n",
      "zip_code": "9000"
    },
    {
      "pk": 2020,
      "franchise": 1,
      "name": "PETROL VOSEK",
      "address": "VOSEK 22A",
      "lat": 46.59570289,
      "lng": 15.70616915,
      "prices": {
        "95": 1.421,
        "dizel": 1.462,
        "98": null,
        "100": 1.65,
        "dizel-premium": null,
        "avtoplin-lpg": null,
        "KOEL": 1.068,
        "hvo": null,
        "cng": null,
        "lng": null
      },
      "distance": null,
      "direction": "Maribor -> Madžarska",
      "open_hours": "Ponedeljek, Torek, Sreda, Četrtek, Petek\n06:00-21:00\n\nSobota\n06:00-21:00\n\nNedelja, Praznik\n08:00-20:00\n",
      "zip_code": "2231"
    },
    {
      "pk": 2021,
      "franchise": 1,
      "name": "PETROL SLOVENSKA BISTRICA - LJUBLJANSKA KROŽIŠČE",
      "address": "LJUBLJANSKA CESTA 45",
      "lat": 46.387184,
      "lng": 15.569006,
      "prices": {
        "95": 1.421,
        "dizel": 1.462,
        "98": null,
        "100": 1.65,
        "dizel-premium": null,
        "avtoplin-lpg": 0.849,
        "KOEL": null,
        "hvo": null,
        "cng": null,
        "lng": null
      },
      "distance": null,
      "direction": "",
      "open_hours": "Ponedeljek, Torek, Sreda, Četrtek, Petek\n05:00-22:00\n\nSobota\n06:00-22:00\n\nNedelja, Praznik\n08:00-21:00\n",
      "zip_code": "2310"
    },
    {
      "pk": 2022,
      "franchise": 1,
      "name": "PETROL PTUJ - ZAGREBŠKA",
      "address": "ZAGREBŠKA CESTA 49B",
      "lat": 46.40705215,
      "lng": 15.866315,
      "prices": {
        "95": 1.421,
        "dizel": 1.462,
        "98": null,
        "100": 1.65,
        "dizel-premium": null,
        "avtoplin-lpg": null,
        "KOEL": 1.068,
        "hvo": null,
        "cng": null,
        "lng": null
      },
      "distance": null,
      "direction": "",
      "open_hours": "Ponedeljek, Torek, Sreda, Četrtek, Petek\n06:00-21:00\n\nSobota\n07:00-20:00\n\nNedelja, Praznik\n07:00-19:00\n",
      "zip_code": "2250"
    },
    {
      "pk": 2023,
      "franchise": 1,
      "name": "PETROL MARIBOR - PUHOVA",
      "address": "PUHOVA ULICA 3",
      "lat": 46.54782826,
      "lng": 15.67767389,
      "prices": {
        "95": 1.421,
        "dizel": 1.462,
        "98": null,
        "100": 1.65,
        "dizel-premium": null,
        "avtoplin-lpg": null,
        "KOEL": null,
        "hvo": null,
        "cng": null,
        "lng": null
      },
      "distance": null,
      "direction": "",
      "open_hours": "Ponedeljek, Torek, Sreda, Četrtek, Petek\n07:00-20:00\n\nSobota\n08:00-17:00\n\nNedelja, Praznik\n08:00-11:00, 11:30-13:00\n",
      "zip_code": "2000"
    },
    {
      "pk": 2024,
      "franchise": 1,
      "name": "PETROL PTUJ - DORNAVSKA",
      "address": "DORNAVSKA CESTA 6B",
      "lat": 46.42336766,
      "lng": 15.88908401,
      "prices": {
        "95": 1.421,
        "dizel": 1.462,
        "98": null,
        "100": 1.65,
        "dizel-premium": null,
        "avtoplin-lpg": null,
        "KOEL": 1.068,
        "hvo": null,
        "cng": null,
        "lng": null
      },
      "distance": null,
      "direction": "",
      "open_hours": "Ponedeljek, Torek, Sreda, Četrtek, Petek\n06:00-21:00\n\nSobota\n07:00-20:00\n\nNedelja, Praznik\n08:00-20:00\n",
      "zip_code": "2250"
    },
    {
      "pk": 2025,
      "franchise": 1,
      "name": "PETROL MARIBOR - TRŽAŠKA 11",
      "address": "TRŽAŠKA CESTA 11",
      "lat": 46.53817035,
      "lng": 15.64737991,
      "prices": {
        "95": 1.421,
        "dizel": 1.462,
        "98": null,
        "100": null,
        "dizel-premium": null,
        "avtoplin-lpg": 0.849,
        "KOEL": 1.068,
        "hvo": null,
        "cng": null,
        "lng": null
      },
      "distance": null,
      "direction": "Ljubljana -> Maribor",
      "open_hours": "Ponedeljek, Torek, Sreda, Četrtek, Petek\n06:00-21:00\n\nSobota\n07:00-20:00\n\nNedelja, Praznik\n07:00-20:00\n",
      "zip_code": "2000"
    },
    {
      "pk": 2026,
      "franchise": 1,
      "name": "PETROL LORMANJE AC - JUG",
      "address": "LORMANJE 22C",
      "lat": 46.564825,
      "lng": 15.826899,
      "prices": {
        "95": 1.421,
        "dizel": 1.462,
        "98": null,
        "100": 1.771,
        "dizel-premium": null,
        "avtoplin-lpg": 0.879,
        "KOEL": null,
        "hvo": null,
        "cng": null,
        "lng": null
      },
      "distance": null,
      "direction": "Maribor -> Madžarska",
      "open_hours": "00:00-23:59\n",
      "zip_code": "2230"
    },
    {
      "pk": 2027,
      "franchise": 1,
      "name": "PETROL PINCE AC - JUG",
      "address": "PINCE-MAROF 55",
      "lat": 46.521752,
      "lng": 16.51791,
      "prices": {
        "95": 1.421,
        "dizel": 1.462,
        "98": null,
        "100": 1.771,
        "dizel-premium": 1.98,
        "avtoplin-lpg": 0.879,
        "KOEL": null,
        "hvo": null,
        "cng": null,
        "lng": null
      },
      "distance": null,
      "direction": "Maribor -> Madžarska",
      "open_hours": "00:00-23:59\n",
      "zip_code": "9220"
    },
    {
      "pk": 2028,
      "franchise": 1,
      "name": "PETROL SLIVNICA VZHOD",
      "address": "LJUBLJANSKA CESTA 61",
      "lat": 46.493923,
      "lng": 15.652196,
      "prices": {
        "95": 1.421,
        "dizel": 1.462,
        "98": null,
        "100": 1.65,
        "dizel-premium": null,
        "avtoplin-lpg": 0.849,
        "KOEL": null,
        "hvo": null,
        "cng": null,
        "lng": null
      },
      "distance": null,
      "direction": "",
      "open_hours": "Ponedeljek, Torek, Sreda, Četrtek, Petek\n06:00-20:00\n\nSobota\n06:00-20:00\n\nNedelja, Praznik\n08:00-19:00\n",
      "zip_code": "2311"
    },
    {
      "pk": 2029,
      "franchise": 1,
      "name": "PETROL MURSKA SOBOTA - PLESE",
      "address": "PANONSKA ULICA 5",
      "lat": 46.656739,
      "lng": 16.178624,
      "prices": {
        "95": 1.421,
        "dizel": 1.462,
        "98": null,
        "100": 1.65,
        "dizel-premium": 1.858,
        "avtoplin-lpg": 0.849,
        "KOEL": null,
        "hvo": null,
        "cng": null,
        "lng": null
      },
      "distance": null,
      "direction": "",
      "open_hours": "00:00-23:59\n",
      "zip_code": "9000"
    },
    {
      "pk": 2030,
      "franchise": 1,
      "name": "PETROL POVIR AC - JUG",
      "address": "POVIR 95",
      "lat": 45.703393,
      "lng": 13.940151,
      "prices": {
        "95": 1.421,
        "dizel": 1.462,
        "98": null,
        "100": 1.771,
        "dizel-premium": null,
        "avtoplin-lpg": 0.879,
        "KOEL": null,
        "hvo": null,
        "cng": null,
        "lng": null
      },
      "distance": null,
      "direction": "Fernetiči -> Ljublja",
      "open_hours": "00:00-23:59\n",
      "zip_code": "6210"
    },
    {
      "pk": 2031,
      "franchise": 1,
      "name": "PETROL POVIR AC - SEVER",
      "address": "POVIR 96",
      "lat": 45.703632,
      "lng": 13.941688,
      "prices": {
        "95": 1.421,
        "dizel": 1.462,
        "98": null,
        "100": 1.771,
        "dizel-premium": null,
        "avtoplin-lpg": 0.879,
        "KOEL": null,
        "hvo": null,
        "cng": null,
        "lng": null
      },
      "distance": null,
      "direction": "",
      "open_hours": "00:00-23:59\n",
      "zip_code": "6210"
    },
    {
      "pk": 2032,
      "franchise": 1,
      "name": "PETROL VIPAVA AC - SEVER",
      "address": "GORIŠKA CESTA 3A",
      "lat": 45.829264,
      "lng": 13.958807,
      "prices": {
        "95": 1.421,
        "dizel": 1.462,
        "98": null,
        "100": 1.771,
        "dizel-premium": 1.98,
        "avtoplin-lpg": 0.879,
        "KOEL": null,
        "hvo": null,
        "cng": null,
        "lng": null
      },
      "distance": null,
      "direction": "",
      "open_hours": "00:00-23:59\n",
      "zip_code": "5271"
    },
    {
      "pk": 2033,
      "franchise": 1,
      "name": "PETROL PIVKA",
      "address": "POSTOJNSKA CESTA 20A",
      "lat": 45.68611881,
      "lng": 14.19717139,
      "prices": {
        "95": 1.421,
        "dizel": 1.462,
        "98": null,
        "100": 1.65,
        "dizel-premium": 1.858,
        "avtoplin-lpg": 0.849,
        "KOEL": null,
        "hvo": null,
        "cng": null,
        "lng": null
      },
      "distance": null,
      "direction": "",
      "open_hours": "Ponedeljek, Torek, Sreda, Četrtek, Petek\n05:00-22:00\n\nSobota\n06:00-22:00\n\nNedelja, Praznik\n07:00-21:00\n",
      "zip_code": "6257"
    },
    {
      "pk": 2034,
      "franchise": 1,
      "name": "PETROL KOPER - KOLODVORSKA",
      "address": "KOLODVORSKA CESTA 3A",
      "lat": 45.542714,
      "lng": 13.735513,
      "prices": {
        "95": 1.421,
        "dizel": 1.462,
        "98": null,
        "100": 1.65,
        "dizel-premium": null,
        "avtoplin-lpg": 0.849,
        "KOEL": null,
        "hvo": null,
        "cng": null,
        "lng": null
      },
      "distance": null,
      "direction": "",
      "open_hours": "Ponedeljek, Torek, Sreda, Četrtek, Petek\n06:00-22:00\n\nSobota\n06:00-22:00\n\nNedelja, Praznik\n07:00-22:00\n",
      "zip_code": "6000"
    },
    {
      "pk": 2036,
      "franchise": 1,
      "name": "PETROL LJUBLJANA - CELOVŠKA 226",
      "address": "CELOVŠKA CESTA 226",
      "lat": 46.081849,
      "lng": 14.479525,
      "prices": {
        "95": 1.421,
        "dizel": 1.462,
        "98": null,
        "100": 1.65,
        "dizel-premium": null,
        "avtoplin-lpg": null,
        "KOEL": null,
        "hvo": null,
        "cng": null,
        "lng": null
      },
      "distance": null,
      "direction": "Ljubljana -> Kranj",
      "open_hours": "00:00-23:59\n",
      "zip_code": "1000"
    }
  ],
  "position": null
}
