{
  "count": 548,
  "next": "https://goriva.si/api/v1/search/?format=json&franchise=&name=&o=&page=21&position=&radius=",
  "previous": "https://goriva.si/api/v1/search/?format=json&franchise=&name=&o=&page=19&position=&radius=",
  "results": [
    {
      "pk": 844,
      "franchise": 2,
      "name": "OMV RADOVLJICA JUG",
      "address": "Ljubljanska cesta 70",
      "lat": 46.33865,
      "lng": 14.19095,
      "prices": {
        "95": 1.568,
        "dizel": 1.798,
        "98": null,
        "100": 1.798,
        "dizel-premium": 1.979,
        "avtoplin-lpg": 1.039,
        "KOEL": null
      },
      "distance": null,
      "direction": "Ljubljana",
      "open_hours": "Pon-Ned 00:00-24:00",
      "zip_code": "4240"
    },
    {
      "pk": 845,
      "franchise": 2,
      "name": "OMV RADOVLJICA SEVER",
      "address": "Ljubljanska cesta 71",
      "lat": 46.33934,
      "lng": 14.19201,
      "prices": {
        "95": 1.568,
        "dizel": 1.798,
        "98": null,
        "100": 1.798,
        "dizel-premium": 1.979,
        "avtoplin-lpg": 1.039,
        "KOEL": null
      },
      "distance": null,
      "direction": "Jesenice",
      "open_hours": "Pon-Ned 00:00-24:00",
      "zip_code": "4240"
    },
    {
      "pk": 847,
      "franchise": 2,
      "name": "OMV RAVBARKOMANDA VZHOD",
      "address": "Javorniška pot 9a",
      "lat": 45.78312588,
      "lng": 14.22304178,
      "prices": {
        "95": 1.568,
        "dizel": 1.798,
        "98": null,
        "100": null,
        "dizel-premium": 1.979,
        "avtoplin-lpg": 1.039,
        "KOEL": null
      },
      "distance": null,
      "direction": "Ljubljana",
      "open_hours": "Pon-Ned 00:00-24:00",
      "zip_code": "6230"
    },
    {
      "pk": 848,
      "franchise": 2,
      "name": "OMV RAVBARKOMANDA ZAHOD",
      "address": "Javorniška pot 7a",
      "lat": 45.78536414,
      "lng": 14.22271237,
      "prices": {
        "95": 1.568,
        "dizel": 1.798,
        "98": null,
        "100": null,
        "dizel-premium": 1.979,
        "avtoplin-lpg": 1.039,
        "KOEL": null
      },
      "distance": null,
      "direction": "Koper",
      "open_hours": "Pon-Ned 00:00-24:00",
      "zip_code": "6230"
    },
    {
      "pk": 861,
      "franchise": 2,
      "name": "OMV ŠEMPAS",
      "address": "Šempas 160b",
      "lat": 45.917693,
      "lng": 13.721916,
      "prices": {
        "95": 1.568,
        "dizel": 1.798,
        "98": null,
        "100": 1.798,
        "dizel-premium": 1.979,
        "avtoplin-lpg": 1.039,
        "KOEL": null
      },
      "distance": null,
      "direction": "Nova Gorica",
      "open_hours": "Pon-Ned 00:00-24:00",
      "zip_code": "5261"
    },
    {
      "pk": 1559,
      "franchise": 4,
      "name": "BS MOL PINCE",
      "address": "LENDAVSKA CESTA 44 A",
      "lat": 46.522006,
      "lng": 16.51979,
      "prices": {
        "95": 1.571,
        "dizel": 1.799,
        "98": null,
        "100": 1.815,
        "dizel-premium": 1.981,
        "avtoplin-lpg": 0.999,
        "KOEL": null
      },
      "distance": null,
      "direction": "smer Murska Sobota",
      "open_hours": "pon. - ned. 00:00 - 24:00",
      "zip_code": "9220"
    },
    {
      "pk": 1568,
      "franchise": 4,
      "name": "BS MOL LORMANJE",
      "address": "LORMANJE 22D",
      "lat": 46.566917,
      "lng": 15.8255,
      "prices": {
        "95": 1.571,
        "dizel": 1.799,
        "98": null,
        "100": 1.815,
        "dizel-premium": 1.981,
        "avtoplin-lpg": 0.999,
        "KOEL": null
      },
      "distance": null,
      "direction": "smer Maribor",
      "open_hours": "pon - ned 00:00 - 24:00",
      "zip_code": "2230"
    },
    {
      "pk": 1949,
      "franchise": 1,
      "name": "PETROL PODLEHNIK AC - VZHOD",
      "address": "STANOŠINA 35",
      "lat": 46.326604,
      "lng": 15.880214,
      "prices": {
        "95": 1.579,
        "dizel": 1.822,
        "98": null,
        "100": 1.808,
        "dizel-premium": 2.087,
        "avtoplin-lpg": 1.051,
        "KOEL": null
      },
      "distance": null,
      "direction": "",
      "open_hours": "NON-STOP",
      "zip_code": "2286"
    },
    {
      "pk": 2000,
      "franchise": 1,
      "name": "PETROL VRTOJBA AC - JUG",
      "address": "MEDNARODNI PREHOD 4A",
      "lat": 45.91934,
      "lng": 13.627636,
      "prices": {
        "95": 1.579,
        "dizel": 1.822,
        "98": null,
        "100": 1.808,
        "dizel-premium": 2.087,
        "avtoplin-lpg": 1.051,
        "KOEL": null
      },
      "distance": null,
      "direction": "",
      "open_hours": "vsak delavnik 06:00-23:00\r\nsobote 06:00-23:00\r\nnedelje in prazniki 08:00-21:00",
      "zip_code": "5290"
    },
    {
      "pk": 2009,
      "franchise": 1,
      "name": "PETROL KOZINA AC - VZHOD",
      "address": "BAZOVIŠKA CESTA 23A",
      "lat": 45.60515,
      "lng": 13.928699,
      "prices": {
        "95": 1.579,
        "dizel": 1.822,
        "98": null,
        "100": 1.808,
        "dizel-premium": 2.087,
        "avtoplin-lpg": 1.051,
        "KOEL": null
      },
      "distance": null,
      "direction": "Koper -> Ljubljana",
      "open_hours": "NON-STOP",
      "zip_code": "6240"
    },
    {
      "pk": 2030,
      "franchise": 1,
      "name": "PETROL POVIR AC - JUG",
      "address": "POVIR 95",
      "lat": 45.703393,
      "lng": 13.940151,
      "prices": {
        "95": 1.579,
        "dizel": 1.822,
        "98": null,
        "100": 1.808,
        "dizel-premium": null,
        "avtoplin-lpg": 1.051,
        "KOEL": null
      },
      "distance": null,
      "direction": "Fernetiči -> Ljublja",
      "open_hours": "NON-STOP",
      "zip_code": "6210"
    },
    {
      "pk": 2031,
      "franchise": 1,
      "name": "PETROL POVIR AC - SEVER",
      "address": "POVIR 96",
      "lat": 45.703632,
      "lng": 13.941688,
      "prices": {
        "95": 1.579,
        "dizel": 1.822,
        "98": null,
        "100": 1.808,
        "dizel-premium": null,
        "avtoplin-lpg": 1.051,
        "KOEL": null
      },
      "distance": null,
      "direction": "",
      "open_hours": "NON-STOP",
      "zip_code": "6210"
    },
    {
      "pk": 2032,
      "franchise": 1,
      "name": "PETROL VIPAVA AC - SEVER",
      "address": "GORIŠKA CESTA 3A",
      "lat": 45.829264,
      "lng": 13.958807,
      "prices": {
        "95": 1.579,
        "dizel": 1.822,
        "98": null,
        "100": 1.808,
        "dizel-premium": 2.087,
        "avtoplin-lpg": 1.051,
        "KOEL": null
      },
      "distance": null,
      "direction": "",
      "open_hours": "NON-STOP",
      "zip_code": "5271"
    },
    {
      "pk": 2059,
      "franchise": 1,
      "name": "PETROL LJUBLJANA AC - BARJE SEVER",
      "address": "CESTA DVEH CESARJEV 71",
      "lat": 46.029136,
      "lng": 14.481739,
      "prices": {
        "95": 1.579,
        "dizel": 1.822,
        "98": null,
        "100": 1.808,
        "dizel-premium": 2.087,
        "avtoplin-lpg": 1.051,
        "KOEL": null
      },
      "distance": null,
      "direction": "",
      "open_hours": "NON-STOP",
      "zip_code": "1000"
    },
    {
      "pk": 2060,
      "franchise": 1,
      "name": "PETROL LJUBLJANA AC - BARJE JUG",
      "address": "CESTA DVEH CESARJEV 73",
      "lat": 46.02880654,
      "lng": 14.47842262,
      "prices": {
        "95": 1.579,
        "dizel": 1.822,
        "98": null,
        "100": 1.808,
        "dizel-premium": 2.087,
        "avtoplin-lpg": 1.051,
        "KOEL": null
      },
      "distance": null,
      "direction": "",
      "open_hours": "NON-STOP",
      "zip_code": "1000"
    },
    {
      "pk": 2096,
      "franchise": 1,
      "name": "PETROL HRUŠICA AC - SEVER",
      "address": "SPODNJI PLAVŽ 24B",
      "lat": 46.440937,
      "lng": 14.028828,
      "prices": {
        "95": 1.579,
        "dizel": 1.822,
        "98": null,
        "100": 1.808,
        "dizel-premium": 2.087,
        "avtoplin-lpg": 1.051,
        "KOEL": null
      },
      "distance": null,
      "direction": "Ljubljana -> Karavan",
      "open_hours": "NON-STOP",
      "zip_code": "4270"
    },
    {
      "pk": 2175,
      "franchise": 1,
      "name": "PETROL TEPANJE AC - ZAHOD",
      "address": "SPODNJE GRUŠOVJE 10C",
      "lat": 46.348824,
      "lng": 15.487582,
      "prices": {
        "95": 1.579,
        "dizel": 1.822,
        "98": null,
        "100": 1.808,
        "dizel-premium": null,
        "avtoplin-lpg": 1.051,
        "KOEL": null
      },
      "distance": null,
      "direction": "Maribor -> Ljubljana",
      "open_hours": "NON-STOP",
      "zip_code": "3210"
    },
    {
      "pk": 2176,
      "franchise": 1,
      "name": "PETROL TEPANJE AC - VZHOD",
      "address": "SPODNJE GRUŠOVJE 10B",
      "lat": 46.347484,
      "lng": 15.48757,
      "prices": {
        "95": 1.579,
        "dizel": 1.822,
        "98": null,
        "100": 1.808,
        "dizel-premium": null,
        "avtoplin-lpg": 1.051,
        "KOEL": null
      },
      "distance": null,
      "direction": "Ljubljana -> Maribor",
      "open_hours": "NON-STOP",
      "zip_code": "3210"
    },
    {
      "pk": 2201,
      "franchise": 1,
      "name": "PETROL ZALOKE AC - JUG",
      "address": "ZALOKE 16",
      "lat": 45.908304,
      "lng": 15.400616,
      "prices": {
        "95": 1.579,
        "dizel": 1.822,
        "98": null,
        "100": 1.808,
        "dizel-premium": null,
        "avtoplin-lpg": 1.051,
        "KOEL": null
      },
      "distance": null,
      "direction": "",
      "open_hours": "NON-STOP",
      "zip_code": "8274"
    },
    {
      "pk": 2231,
      "franchise": 1,
      "name": "PETROL DUL AC - JUG",
      "address": "DOLENJI PODBORŠT PRI TREB. 50",
      "lat": 45.898858,
      "lng": 15.026398,
      "prices": {
        "95": 1.579,
        "dizel": 1.822,
        "98": null,
        "100": 1.808,
        "dizel-premium": 2.087,
        "avtoplin-lpg": 1.051,
        "KOEL": null
      },
      "distance": null,
      "direction": "Ljubljana -> Novo Me",
      "open_hours": "NON-STOP",
      "zip_code": "8210"
    },
    {
      "pk": 2232,
      "franchise": 1,
      "name": "PETROL PODLEHNIK AC - ZAHOD",
      "address": "DEŽNO PRI PODLEHNIKU 2",
      "lat": 46.329098,
      "lng": 15.878359,
      "prices": {
        "95": 1.579,
        "dizel": 1.822,
        "98": null,
        "100": 1.808,
        "dizel-premium": 2.087,
        "avtoplin-lpg": 1.051,
        "KOEL": null
      },
      "distance": null,
      "direction": "",
      "open_hours": "NON-STOP",
      "zip_code": "2286"
    },
    {
      "pk": 1923,
      "franchise": 1,
      "name": "PETROL ŠENTILJ AC - ZAHOD",
      "address": "CESTA 2. JULIJA 19",
      "lat": 46.68509786,
      "lng": 15.64986497,
      "prices": {
        "95": 1.587,
        "dizel": 1.822,
        "98": null,
        "100": 1.808,
        "dizel-premium": null,
        "avtoplin-lpg": 1.051,
        "KOEL": null
      },
      "distance": null,
      "direction": "",
      "open_hours": "NON-STOP",
      "zip_code": "2212"
    },
    {
      "pk": 1945,
      "franchise": 1,
      "name": "PETROL ŠENTILJ AC - VZHOD",
      "address": "CESTA 2. JULIJA 22",
      "lat": 46.6859127,
      "lng": 15.65055471,
      "prices": {
        "95": 1.587,
        "dizel": 1.822,
        "98": null,
        "100": 1.808,
        "dizel-premium": null,
        "avtoplin-lpg": 1.051,
        "KOEL": null
      },
      "distance": null,
      "direction": "",
      "open_hours": "NON-STOP",
      "zip_code": "2212"
    },
    {
      "pk": 1976,
      "franchise": 1,
      "name": "PETROL GRABONOŠ AC - SEVER",
      "address": "GRABONOŠ 4D",
      "lat": 46.585173,
      "lng": 16.007142,
      "prices": {
        "95": 1.587,
        "dizel": 1.822,
        "98": null,
        "100": 1.808,
        "dizel-premium": null,
        "avtoplin-lpg": 1.051,
        "KOEL": null
      },
      "distance": null,
      "direction": "",
      "open_hours": "NON-STOP",
      "zip_code": "9244"
    },
    {
      "pk": 1977,
      "franchise": 1,
      "name": "PETROL MARIBOR - AC ZAHOD",
      "address": "NA POLJU 24",
      "lat": 46.532935,
      "lng": 15.699297,
      "prices": {
        "95": 1.587,
        "dizel": 1.822,
        "98": null,
        "100": 1.808,
        "dizel-premium": 2.087,
        "avtoplin-lpg": 1.051,
        "KOEL": null
      },
      "distance": null,
      "direction": "Maribor -> Ljubljana",
      "open_hours": "NON-STOP",
      "zip_code": "2000"
    }
  ],
  "position": null
}
