{
  "count": 540,
  "next": "https://goriva.si/api/v1/search/?format=json&franchise=&name=&o=&page=18&position=&radius=",
  "previous": "https://goriva.si/api/v1/search/?format=json&franchise=&name=&o=&page=16&position=&radius=",
  "results": [
    {
      "pk": 866,
      "franchise": 2,
      "name": "OMV ŠMARJE",
      "address": "Srgaši 42a",
      "lat": 45.510467,
      "lng": 13.707064,
      "prices": {
        "95": 1,
        "dizel": 1.002,
        "98": null,
        "100": 1.129,
        "dizel-premium": null,
        "avtoplin-lpg": null,
        "KOEL": null
      },
      "distance": null,
      "direction": "",
      "open_hours": "Okt-Mar: Pon-Sob 06:00-20:00, Ned/Praz 07:00-20:00; Apr-Maj: Pon-Sob 06:00-21:00, Ned/Praz 07:00-21:00; Jun-Sep: Pon-Sob 06:00-22:00, Ned/Praz 07:00-22:00",
      "zip_code": "6274"
    },
    {
      "pk": 867,
      "franchise": 2,
      "name": "OMV ŠTANJEL",
      "address": "Štanjel 80",
      "lat": 45.81842,
      "lng": 13.84414,
      "prices": {
        "95": 1,
        "dizel": 1.002,
        "98": null,
        "100": 1.129,
        "dizel-premium": null,
        "avtoplin-lpg": null,
        "KOEL": null
      },
      "distance": null,
      "direction": "",
      "open_hours": "Okt-Mar: Pon-Ned 07:00-19:00; Apr-Sep Pon-Ned 07:00-20:00",
      "zip_code": "6222"
    },
    {
      "pk": 868,
      "franchise": 2,
      "name": "OMV TEPANJE",
      "address": "Tepanje 4b",
      "lat": 46.340828,
      "lng": 15.469587,
      "prices": {
        "95": 1,
        "dizel": 1.002,
        "98": null,
        "100": 1.129,
        "dizel-premium": null,
        "avtoplin-lpg": null,
        "KOEL": null
      },
      "distance": null,
      "direction": "Slovenske Konjice",
      "open_hours": "16.Sep-14.Jun: Pon-Ned 6:00-22:00; 15.Jun-15.Sep: Pon-Ned 6:00-23:00",
      "zip_code": "3210"
    },
    {
      "pk": 869,
      "franchise": 2,
      "name": "OMV TREBNJE",
      "address": "Obrtniška 28",
      "lat": 45.910462,
      "lng": 15.025649,
      "prices": {
        "95": 1,
        "dizel": 1.002,
        "98": null,
        "100": 1.129,
        "dizel-premium": null,
        "avtoplin-lpg": null,
        "KOEL": 0.777
      },
      "distance": null,
      "direction": "",
      "open_hours": "Pon-Ned 06:00-22:00",
      "zip_code": "8210"
    },
    {
      "pk": 870,
      "franchise": 2,
      "name": "OMV VELENJE GORENJE",
      "address": "Partizanska c. 15a",
      "lat": 46.359472,
      "lng": 15.099174,
      "prices": {
        "95": 1,
        "dizel": 1.002,
        "98": null,
        "100": 1.129,
        "dizel-premium": null,
        "avtoplin-lpg": null,
        "KOEL": null
      },
      "distance": null,
      "direction": "",
      "open_hours": "Pon-Ned 05:30-22:30",
      "zip_code": "3320"
    },
    {
      "pk": 871,
      "franchise": 2,
      "name": "OMV VELENJE SELO",
      "address": "Selo 10a",
      "lat": 46.36972,
      "lng": 15.13265,
      "prices": {
        "95": 1,
        "dizel": 1.002,
        "98": null,
        "100": 1.129,
        "dizel-premium": null,
        "avtoplin-lpg": null,
        "KOEL": 0.777
      },
      "distance": null,
      "direction": "",
      "open_hours": "Pon-Ned 06:00-22:00",
      "zip_code": "3320"
    },
    {
      "pk": 873,
      "franchise": 2,
      "name": "OMV VIR DOMŽALE",
      "address": "Šaranovičeva c. 10a",
      "lat": 46.147666,
      "lng": 14.60635,
      "prices": {
        "95": 1,
        "dizel": 1.002,
        "98": null,
        "100": 1.129,
        "dizel-premium": null,
        "avtoplin-lpg": null,
        "KOEL": null
      },
      "distance": null,
      "direction": "",
      "open_hours": "Pon-Ned 06:00-22:00",
      "zip_code": "1230"
    },
    {
      "pk": 874,
      "franchise": 2,
      "name": "OMV VRTOJBA",
      "address": "Polje 6",
      "lat": 45.920878,
      "lng": 13.631287,
      "prices": {
        "95": 1,
        "dizel": 1.002,
        "98": null,
        "100": 1.129,
        "dizel-premium": null,
        "avtoplin-lpg": null,
        "KOEL": 0.777
      },
      "distance": null,
      "direction": "",
      "open_hours": "Pon-Ned 06:00-22:00",
      "zip_code": "5290"
    },
    {
      "pk": 875,
      "franchise": 2,
      "name": "OMV ZAGRADEC",
      "address": "Zagradec 34",
      "lat": 45.85943,
      "lng": 14.83524,
      "prices": {
        "95": 1,
        "dizel": 1.002,
        "98": null,
        "100": 1.129,
        "dizel-premium": null,
        "avtoplin-lpg": null,
        "KOEL": 0.777
      },
      "distance": null,
      "direction": "",
      "open_hours": "Pon-Ned 06:00-22:00",
      "zip_code": "1303"
    },
    {
      "pk": 876,
      "franchise": 2,
      "name": "OMV ZGORNJA POLSKAVA",
      "address": "Bukovec 1b",
      "lat": 46.43075,
      "lng": 15.62705,
      "prices": {
        "95": 1,
        "dizel": 1.002,
        "98": null,
        "100": 1.129,
        "dizel-premium": null,
        "avtoplin-lpg": null,
        "KOEL": 0.777
      },
      "distance": null,
      "direction": "",
      "open_hours": "Pon-Ned 06:00-22:00",
      "zip_code": "2314"
    },
    {
      "pk": 2234,
      "franchise": 4,
      "name": "BS MOL TEZNO",
      "address": "Ptujska cesta 56",
      "lat": 46.537696,
      "lng": 15.655975,
      "prices": {
        "95": 1,
        "dizel": 1,
        "98": null,
        "100": 1.126,
        "dizel-premium": 1.1,
        "avtoplin-lpg": 0.578,
        "KOEL": null
      },
      "distance": null,
      "direction": "",
      "open_hours": "Odpiralni čas:\r\nPonedeljek - petek:            05:00 - 22:00\r\nSobota:                                06:00 - 22:00\r\nNedelja:                               06:00 - 22:00\r\nPrazniki:                               06:00 - 22:00",
      "zip_code": "2000"
    },
    {
      "pk": 2235,
      "franchise": 4,
      "name": "BS MOL KRANJ",
      "address": "Ulica Boštjana Hladnika 4",
      "lat": 46.230565,
      "lng": 14.369373,
      "prices": {
        "95": 1,
        "dizel": 1,
        "98": null,
        "100": 1.126,
        "dizel-premium": 1.1,
        "avtoplin-lpg": 0.575,
        "KOEL": null
      },
      "distance": null,
      "direction": "",
      "open_hours": "PON - SOB 06:00 - 22:00\r\nNEDELJA IN PRAZNIKI 08:00 - 20:00",
      "zip_code": "4000"
    },
    {
      "pk": 2236,
      "franchise": 2,
      "name": "OMV PTUJ",
      "address": "Ormoška cesta 32",
      "lat": 46.41600383,
      "lng": 15.88503332,
      "prices": {
        "95": 1,
        "dizel": 1.002,
        "98": null,
        "100": 1.129,
        "dizel-premium": null,
        "avtoplin-lpg": 0.582,
        "KOEL": null
      },
      "distance": null,
      "direction": "",
      "open_hours": "Pon-Ned 06:00-22:00",
      "zip_code": "2250"
    },
    {
      "pk": 2237,
      "franchise": 3,
      "name": "BS MAXEN TRŽIČ",
      "address": "Cesta Ste Marie aux Mines bš",
      "lat": 46.3583296,
      "lng": 14.2978288,
      "prices": {
        "95": 1,
        "dizel": 1,
        "98": null,
        "100": null,
        "dizel-premium": null,
        "avtoplin-lpg": null,
        "KOEL": null
      },
      "distance": null,
      "direction": "",
      "open_hours": "24/7",
      "zip_code": "4290"
    },
    {
      "pk": 2238,
      "franchise": 3,
      "name": "BS MAXEN KOPER",
      "address": "Ulica 15. maja bš",
      "lat": 45.5371584,
      "lng": 13.7323296,
      "prices": {
        "95": 1,
        "dizel": 1,
        "98": null,
        "100": null,
        "dizel-premium": null,
        "avtoplin-lpg": null,
        "KOEL": null
      },
      "distance": null,
      "direction": "",
      "open_hours": "24/7",
      "zip_code": "6000"
    },
    {
      "pk": 2239,
      "franchise": 3,
      "name": "BS MAXEN NIZKA",
      "address": "Nizka bš",
      "lat": 46.3157792,
      "lng": 14.9116624,
      "prices": {
        "95": 1,
        "dizel": 1,
        "98": null,
        "100": null,
        "dizel-premium": null,
        "avtoplin-lpg": null,
        "KOEL": null
      },
      "distance": null,
      "direction": "",
      "open_hours": "24/7",
      "zip_code": "3332"
    },
    {
      "pk": 2240,
      "franchise": 3,
      "name": "BS MAXEN GORNJA RADGONA",
      "address": "Ljutomerska cesta bš",
      "lat": 46.6636544,
      "lng": 16.0091968,
      "prices": {
        "95": 1,
        "dizel": 1,
        "98": null,
        "100": null,
        "dizel-premium": null,
        "avtoplin-lpg": null,
        "KOEL": null
      },
      "distance": null,
      "direction": "",
      "open_hours": "24/7",
      "zip_code": "9250"
    },
    {
      "pk": 2241,
      "franchise": 3,
      "name": "BS MAXEN BENEDIKT",
      "address": "Radgonska cesta bš",
      "lat": 46.6088,
      "lng": 15.893144,
      "prices": {
        "95": 1,
        "dizel": 1,
        "98": null,
        "100": null,
        "dizel-premium": null,
        "avtoplin-lpg": null,
        "KOEL": null
      },
      "distance": null,
      "direction": "",
      "open_hours": "24/7",
      "zip_code": "2234"
    },
    {
      "pk": 2242,
      "franchise": 3,
      "name": "BS MAXEN ČRNOMELJ",
      "address": "Ulica heroja Stariha bš",
      "lat": 45.5729152,
      "lng": 15.1853056,
      "prices": {
        "95": 1,
        "dizel": 1,
        "98": null,
        "100": null,
        "dizel-premium": null,
        "avtoplin-lpg": null,
        "KOEL": null
      },
      "distance": null,
      "direction": "",
      "open_hours": "24/7",
      "zip_code": "8340"
    },
    {
      "pk": 2243,
      "franchise": 3,
      "name": "BS MAXEN GRAD",
      "address": "Grad bš",
      "lat": 46.7978208,
      "lng": 16.0886368,
      "prices": {
        "95": 1,
        "dizel": 1,
        "98": null,
        "100": null,
        "dizel-premium": null,
        "avtoplin-lpg": null,
        "KOEL": null
      },
      "distance": null,
      "direction": "",
      "open_hours": "24/7",
      "zip_code": "9264"
    },
    {
      "pk": 2244,
      "franchise": 3,
      "name": "BS MAXEN DOLNJI LAKOŠ",
      "address": "Glavna ulica bš",
      "lat": 46.5525523,
      "lng": 16.430912,
      "prices": {
        "95": 1,
        "dizel": 1,
        "98": null,
        "100": null,
        "dizel-premium": null,
        "avtoplin-lpg": null,
        "KOEL": null
      },
      "distance": null,
      "direction": "",
      "open_hours": "24/7",
      "zip_code": "9220"
    },
    {
      "pk": 2245,
      "franchise": 3,
      "name": "BS MAXEN SELNICA OB DRAVI",
      "address": "Spodnja Selnica bš",
      "lat": 46.5546048,
      "lng": 15.5078896,
      "prices": {
        "95": 1,
        "dizel": 1,
        "98": null,
        "100": null,
        "dizel-premium": null,
        "avtoplin-lpg": null,
        "KOEL": null
      },
      "distance": null,
      "direction": "",
      "open_hours": "24/7",
      "zip_code": "2352"
    },
    {
      "pk": 2246,
      "franchise": 3,
      "name": "BS MAXEN LJUBLJANA-BTC",
      "address": "Argentinska ulica bš",
      "lat": 46.0665824,
      "lng": 14.5488544,
      "prices": {
        "95": 1,
        "dizel": 1,
        "98": null,
        "100": null,
        "dizel-premium": null,
        "avtoplin-lpg": null,
        "KOEL": null
      },
      "distance": null,
      "direction": "",
      "open_hours": "24/7",
      "zip_code": "1000"
    },
    {
      "pk": 2247,
      "franchise": 3,
      "name": "BS MAXEN METLIKA",
      "address": "Mestni log bš",
      "lat": 45.6406592,
      "lng": 15.3216016,
      "prices": {
        "95": 1,
        "dizel": 1,
        "98": null,
        "100": null,
        "dizel-premium": null,
        "avtoplin-lpg": null,
        "KOEL": null
      },
      "distance": null,
      "direction": "",
      "open_hours": "24/7",
      "zip_code": "8330"
    },
    {
      "pk": 2248,
      "franchise": 3,
      "name": "BS MAXEN PREDGRAD",
      "address": "Paka pri Predgradu bš",
      "lat": 45.5025792,
      "lng": 15.0603264,
      "prices": {
        "95": 1,
        "dizel": 1,
        "98": null,
        "100": null,
        "dizel-premium": null,
        "avtoplin-lpg": null,
        "KOEL": null
      },
      "distance": null,
      "direction": "",
      "open_hours": "24/7",
      "zip_code": "8342"
    }
  ],
  "position": null
}
