{
  "count": 547,
  "next": "https://goriva.si/api/v1/search/?format=json&franchise=&name=&o=&page=15&position=&radius=",
  "previous": "https://goriva.si/api/v1/search/?format=json&franchise=&name=&o=&page=13&position=&radius=",
  "results": [
    {
      "pk": 2047,
      "franchise": 1,
      "name": "PETROL LJUBLJANA - CELOVŠKA 251",
      "address": "CELOVŠKA CESTA 251",
      "lat": 46.08132492,
      "lng": 14.47901865,
      "prices": {
        "95": 1.182,
        "dizel": 1.23,
        "98": null,
        "100": 1.329,
        "dizel-premium": null,
        "avtoplin-lpg": null,
        "KOEL": null
      },
      "distance": null,
      "direction": "",
      "open_hours": "vsak delavnik 06:00-20:00\r\nsobote 06:00-20:00\r\nnedelje in prazniki 07:00-20:00",
      "zip_code": "1000"
    },
    {
      "pk": 2304,
      "franchise": 19,
      "name": "Bencinski servis Velika Pirešica",
      "address": "Velika Pirešica 60",
      "lat": 46.28633117675781,
      "lng": 15.176063537597656,
      "prices": {
        "95": 1.183,
        "dizel": 1.23,
        "98": null,
        "100": 1.339,
        "dizel-premium": null,
        "avtoplin-lpg": null,
        "KOEL": 0.968
      },
      "distance": null,
      "direction": "",
      "open_hours": "6.00-22.00",
      "zip_code": "3310"
    },
    {
      "pk": 2305,
      "franchise": 19,
      "name": "Bencinski servis Škofja Loka",
      "address": "Grenc 57",
      "lat": 46.1730598,
      "lng": 14.3212867,
      "prices": {
        "95": 1.183,
        "dizel": 1.23,
        "98": null,
        "100": 1.339,
        "dizel-premium": null,
        "avtoplin-lpg": 0.61,
        "KOEL": 0.978
      },
      "distance": null,
      "direction": "",
      "open_hours": "6.00-22.00",
      "zip_code": "4220"
    },
    {
      "pk": 2306,
      "franchise": 19,
      "name": "Bencinski servis Juršinci",
      "address": "Juršinci 81a",
      "lat": 46.4832476,
      "lng": 15.965107,
      "prices": {
        "95": 1.183,
        "dizel": 1.23,
        "98": null,
        "100": 1.339,
        "dizel-premium": null,
        "avtoplin-lpg": null,
        "KOEL": 0.968
      },
      "distance": null,
      "direction": "",
      "open_hours": "Vsak dan od 6.00 do 21.00\r\nNedelja 7.00 do 17.00",
      "zip_code": "2256"
    },
    {
      "pk": 2307,
      "franchise": 19,
      "name": "Bencinski servis Sodražica",
      "address": "cesta Notranjskega odreda 56",
      "lat": 45.76375961303711,
      "lng": 14.63137435913086,
      "prices": {
        "95": 1.183,
        "dizel": 1.23,
        "98": null,
        "100": null,
        "dizel-premium": null,
        "avtoplin-lpg": null,
        "KOEL": null
      },
      "distance": null,
      "direction": "",
      "open_hours": "5.30-22.00",
      "zip_code": "1317"
    },
    {
      "pk": 2302,
      "franchise": 19,
      "name": "LOGO BENCINSKI SERVISI d.o.o. PE BREZOVICA",
      "address": "Tržaška cesta 358",
      "lat": 46.026026,
      "lng": 14.4284534,
      "prices": {
        "95": 1.183,
        "dizel": 1.23,
        "98": null,
        "100": 1.339,
        "dizel-premium": null,
        "avtoplin-lpg": null,
        "KOEL": 0.957
      },
      "distance": null,
      "direction": "",
      "open_hours": "6.00-22.30",
      "zip_code": "1351"
    },
    {
      "pk": 2303,
      "franchise": 19,
      "name": "Bencinski servis Tupaliče",
      "address": "Tupaliče 35a",
      "lat": 46.2955877,
      "lng": 14.4297645,
      "prices": {
        "95": 1.183,
        "dizel": 1.23,
        "98": null,
        "100": 1.339,
        "dizel-premium": null,
        "avtoplin-lpg": null,
        "KOEL": 0.968
      },
      "distance": null,
      "direction": "",
      "open_hours": "Vsak dan od 6.00-21.00\r\nNedelja od 7.00-22.00",
      "zip_code": "4205"
    },
    {
      "pk": 2311,
      "franchise": 18,
      "name": "BS Merkantil KNEŽAK",
      "address": "KNEŽAK 3",
      "lat": 45.625625,
      "lng": 14.239867,
      "prices": {
        "95": 1.184,
        "dizel": 1.232,
        "98": null,
        "100": null,
        "dizel-premium": null,
        "avtoplin-lpg": 0.669,
        "KOEL": 0.97
      },
      "distance": null,
      "direction": "",
      "open_hours": "pon - čet: 6,00 - 18,00\r\npet - sob: 6,00 - 20,00\r\nned: 7,00 - 20,00",
      "zip_code": "6253"
    },
    {
      "pk": 1548,
      "franchise": 4,
      "name": "BS MOL KIDRIČEVO",
      "address": "TOVARNIŠKA CESTA 8A",
      "lat": 46.404094,
      "lng": 15.799085,
      "prices": {
        "95": 1.184,
        "dizel": 1.233,
        "98": null,
        "100": 1.339,
        "dizel-premium": 1.399,
        "avtoplin-lpg": null,
        "KOEL": 0.97
      },
      "distance": null,
      "direction": "",
      "open_hours": "PON - SOB 05:00 - 23:00\r\nNEDELJA IN PRAZNIKI 08:00 - 20:00",
      "zip_code": "2325"
    },
    {
      "pk": 2316,
      "franchise": 23,
      "name": "BS Žihlava",
      "address": "Žihlava 15",
      "lat": 46.55,
      "lng": 16.0396,
      "prices": {
        "95": 1.184,
        "dizel": 1.232,
        "98": null,
        "100": null,
        "dizel-premium": null,
        "avtoplin-lpg": null,
        "KOEL": null
      },
      "distance": null,
      "direction": "Gornja Radgona - Ljutomer",
      "open_hours": "ponedeljek: 6.00 - 21.00\r\ntorek:          6.00 - 21.00\r\nsreda:          6.00 - 21.00\r\nčetrtek:        6.00 - 21.00\r\npetek:          6.00 - 21.00\r\nsobota:        6.00 - 21.00\r\nnedelja:       7.00 - 17.00\r\nprazniki:      7.00 - 17.00",
      "zip_code": "9244"
    },
    {
      "pk": 1549,
      "franchise": 4,
      "name": "BS MOL ROGAŠKA SLATINA",
      "address": "TRŽIŠČE 12B",
      "lat": 46.2306674,
      "lng": 15.6556409,
      "prices": {
        "95": 1.184,
        "dizel": 1.233,
        "98": null,
        "100": 1.339,
        "dizel-premium": 1.399,
        "avtoplin-lpg": null,
        "KOEL": 0.97
      },
      "distance": null,
      "direction": "",
      "open_hours": "pon. - sob. 06:00 - 22:00\r\nnedelja in prazniki 08:00 - 20:00",
      "zip_code": "3250"
    },
    {
      "pk": 2317,
      "franchise": 23,
      "name": "BS Lemerje",
      "address": "Lemerje 2",
      "lat": 46.7094,
      "lng": 16.1102,
      "prices": {
        "95": 1.184,
        "dizel": 1.232,
        "98": null,
        "100": null,
        "dizel-premium": null,
        "avtoplin-lpg": null,
        "KOEL": null
      },
      "distance": null,
      "direction": "Murska Sobota - Grad (Kuzma)",
      "open_hours": "ponedeljek: 6.00 - 21.00\r\ntorek:          6.00 - 21.00\r\nsreda:          6.00 - 21.00\r\nčetrtek:        6.00 - 21.00\r\npetek:          6.00 - 21.00\r\nsobota:        6.00 - 21.00\r\nnedelja:       7.00 - 17.00\r\nprazniki:      7.00 - 17.00",
      "zip_code": "9201"
    },
    {
      "pk": 1550,
      "franchise": 4,
      "name": "BS MOL CELJE, KIDRIČEVA",
      "address": "KIDRIČEVA ULICA 40",
      "lat": 46.234044,
      "lng": 15.2961655,
      "prices": {
        "95": 1.184,
        "dizel": 1.233,
        "98": null,
        "100": 1.339,
        "dizel-premium": 1.399,
        "avtoplin-lpg": null,
        "KOEL": 0.97
      },
      "distance": null,
      "direction": "",
      "open_hours": "PON - PET 05:00 - 22:00\r\nSOBOTA 05:00 - 22:00\r\nNEDELJA IN PRAZNIKI 08:00 - 20:00",
      "zip_code": "3000"
    },
    {
      "pk": 1551,
      "franchise": 4,
      "name": "BS MOL LITIJA",
      "address": "LJUBLJANSKA CESTA 10B",
      "lat": 46.057104,
      "lng": 14.822957,
      "prices": {
        "95": 1.184,
        "dizel": 1.233,
        "98": null,
        "100": 1.339,
        "dizel-premium": 1.399,
        "avtoplin-lpg": null,
        "KOEL": 0.97
      },
      "distance": null,
      "direction": "",
      "open_hours": "PON - SOB 05:00 - 23:00\r\nNEDELJA IN PRAZNIKI 08:00 - 20:00",
      "zip_code": "1270"
    },
    {
      "pk": 1552,
      "franchise": 4,
      "name": "BS MOL KOČEVJE",
      "address": "LJUBLJANSKA CESTA 40",
      "lat": 45.6488405,
      "lng": 14.8544269,
      "prices": {
        "95": 1.184,
        "dizel": 1.233,
        "98": null,
        "100": 1.339,
        "dizel-premium": 1.399,
        "avtoplin-lpg": null,
        "KOEL": 0.97
      },
      "distance": null,
      "direction": "",
      "open_hours": "PON - SOB 05:00 - 23:00\r\nNEDELJA IN PRAZNIKI 08:00 - 20:00",
      "zip_code": "1330"
    },
    {
      "pk": 1553,
      "franchise": 4,
      "name": "BS MOL SLOVENSKA BISTRICA",
      "address": "LJUBLJANSKA CESTA 91",
      "lat": 46.38245,
      "lng": 15.563571,
      "prices": {
        "95": 1.184,
        "dizel": 1.233,
        "98": null,
        "100": 1.339,
        "dizel-premium": null,
        "avtoplin-lpg": null,
        "KOEL": 0.97
      },
      "distance": null,
      "direction": "",
      "open_hours": "",
      "zip_code": ""
    },
    {
      "pk": 1554,
      "franchise": 4,
      "name": "BS MOL MURSKA SOBOTA",
      "address": "MALA NOVA ULICA 1",
      "lat": 46.6560676,
      "lng": 16.1751469,
      "prices": {
        "95": 1.184,
        "dizel": 1.233,
        "98": null,
        "100": 1.339,
        "dizel-premium": 1.399,
        "avtoplin-lpg": null,
        "KOEL": 0.97
      },
      "distance": null,
      "direction": "",
      "open_hours": "pon. - sob. 05:00 - 22:00\r\nnedelja in prazniki 07:00 - 20:00",
      "zip_code": "9000"
    },
    {
      "pk": 1555,
      "franchise": 4,
      "name": "BS MOL RIBNICA",
      "address": "MERHARJEVA ULICA 13",
      "lat": 45.738688,
      "lng": 14.733154,
      "prices": {
        "95": 1.184,
        "dizel": 1.233,
        "98": null,
        "100": 1.339,
        "dizel-premium": 1.399,
        "avtoplin-lpg": null,
        "KOEL": 0.97
      },
      "distance": null,
      "direction": "",
      "open_hours": "pon. - sob. 05:00 - 23:00\r\nnedelja in prazniki 08:00 - 20:00",
      "zip_code": "1310"
    },
    {
      "pk": 1556,
      "franchise": 4,
      "name": "BS MOL LOGATEC",
      "address": "TRŽAŠKA 74A",
      "lat": 45.9166669,
      "lng": 14.218824,
      "prices": {
        "95": 1.184,
        "dizel": 1.233,
        "98": null,
        "100": 1.339,
        "dizel-premium": 1.399,
        "avtoplin-lpg": null,
        "KOEL": 0.97
      },
      "distance": null,
      "direction": "",
      "open_hours": "pon - sob 05:00 - 23:00\r\nnedelja in prazniki 08:00 - 20:00",
      "zip_code": "1370"
    },
    {
      "pk": 1557,
      "franchise": 4,
      "name": "BS MOL CELJE, MARIBORSKA",
      "address": "MARIBORSKA CESTA 111",
      "lat": 46.2451779,
      "lng": 15.2776158,
      "prices": {
        "95": 1.184,
        "dizel": 1.233,
        "98": null,
        "100": 1.339,
        "dizel-premium": 1.399,
        "avtoplin-lpg": null,
        "KOEL": 0.97
      },
      "distance": null,
      "direction": "",
      "open_hours": "PON - NED 00:00-24:00",
      "zip_code": "3000"
    },
    {
      "pk": 1558,
      "franchise": 4,
      "name": "BS MOL MURSKA SOBOTA",
      "address": "LENDAVSKA ULICA 75",
      "lat": 46.6676096,
      "lng": 16.1767565,
      "prices": {
        "95": 1.184,
        "dizel": 1.233,
        "98": null,
        "100": 1.339,
        "dizel-premium": 1.399,
        "avtoplin-lpg": null,
        "KOEL": 0.97
      },
      "distance": null,
      "direction": "",
      "open_hours": "pon. - sob. 06:00 - 22:00\r\nnedelja in prazniki 08:00 - 20:00",
      "zip_code": "9000"
    },
    {
      "pk": 1560,
      "franchise": 4,
      "name": "BS MOL ROŽNA DOLINA",
      "address": "ULICA ANGELA BESEDNJAKA 8A",
      "lat": 45.9404582,
      "lng": 13.6399226,
      "prices": {
        "95": 1.184,
        "dizel": 1.233,
        "98": null,
        "100": 1.339,
        "dizel-premium": 1.399,
        "avtoplin-lpg": 0.665,
        "KOEL": 0.97
      },
      "distance": null,
      "direction": "",
      "open_hours": "pon. - ned. 00:00 - 24:00",
      "zip_code": "5000"
    },
    {
      "pk": 1561,
      "franchise": 4,
      "name": "BS MOL RADVANJE MARIBOR",
      "address": "STRELIŠKA CESTA 16/A",
      "lat": 46.5360559,
      "lng": 15.6202679,
      "prices": {
        "95": 1.184,
        "dizel": 1.233,
        "98": null,
        "100": 1.339,
        "dizel-premium": 1.399,
        "avtoplin-lpg": 0.658,
        "KOEL": 0.97
      },
      "distance": null,
      "direction": "",
      "open_hours": "pon. - sob. 06:00 - 22:00\r\nnedelja in prazniki 08:00 - 20:00",
      "zip_code": "2000"
    },
    {
      "pk": 1562,
      "franchise": 4,
      "name": "BS MOL KOZINA",
      "address": "BAZOVIŠKA CESTA 18",
      "lat": 45.6090699,
      "lng": 13.9336733,
      "prices": {
        "95": 1.184,
        "dizel": 1.233,
        "98": null,
        "100": 1.339,
        "dizel-premium": null,
        "avtoplin-lpg": null,
        "KOEL": 0.97
      },
      "distance": null,
      "direction": "",
      "open_hours": "PON - SOB 06:00 - 22:00\r\nNEDELJA IN PRAZNIKI 08:00 - 20:00",
      "zip_code": "6240"
    },
    {
      "pk": 1563,
      "franchise": 4,
      "name": "BS MOL GORNJA RADGONA",
      "address": "LJUTOMERSKA CESTA 12",
      "lat": 46.6699694,
      "lng": 15.9961534,
      "prices": {
        "95": 1.184,
        "dizel": 1.233,
        "98": null,
        "100": 1.339,
        "dizel-premium": 1.392,
        "avtoplin-lpg": null,
        "KOEL": 0.97
      },
      "distance": null,
      "direction": "",
      "open_hours": "pon - sob 06:00 - 22:00\r\nnedelja in prazniki 08:00 - 20:00",
      "zip_code": ""
    }
  ],
  "position": null
}
