{
  "count": 552,
  "next": "https://goriva.si/api/v1/search/?format=json&franchise=&name=&o=&page=4&position=&radius=",
  "previous": "https://goriva.si/api/v1/search/?format=json&franchise=&name=&o=&page=2&position=&radius=",
  "results": [
    {
      "pk": 837,
      "franchise": 2,
      "name": "BS MOL OBREŽJE JUG",
      "address": "Jesenice 36a",
      "lat": 45.854884,
      "lng": 15.684443,
      "prices": {
        "95": 1.411,
        "dizel": 1.441,
        "98": null,
        "100": 1.764,
        "dizel-premium": 1.726,
        "avtoplin-lpg": null,
        "KOEL": null,
        "hvo": null,
        "cng": null,
        "lng": null
      },
      "distance": null,
      "direction": "Zagreb",
      "open_hours": "00:00-23:59\n",
      "zip_code": "8261"
    },
    {
      "pk": 838,
      "franchise": 2,
      "name": "BS MOL ORMOŽ",
      "address": "Hardek 44d",
      "lat": 46.409754,
      "lng": 16.160733,
      "prices": {
        "95": 1.411,
        "dizel": 1.441,
        "98": null,
        "100": 1.642,
        "dizel-premium": 1.598,
        "avtoplin-lpg": null,
        "KOEL": 1.045,
        "hvo": null,
        "cng": null,
        "lng": null
      },
      "distance": null,
      "direction": "",
      "open_hours": "06:00-22:00\n",
      "zip_code": "2270"
    },
    {
      "pk": 839,
      "franchise": 2,
      "name": "BS MOL PESEK",
      "address": "Krvavi potok 25",
      "lat": 45.620425,
      "lng": 13.906935,
      "prices": {
        "95": 1.411,
        "dizel": 1.441,
        "98": null,
        "100": 1.642,
        "dizel-premium": null,
        "avtoplin-lpg": null,
        "KOEL": null,
        "hvo": null,
        "cng": null,
        "lng": null
      },
      "distance": null,
      "direction": "Kozina",
      "open_hours": "07:00-22:00\n",
      "zip_code": "6240"
    },
    {
      "pk": 840,
      "franchise": 2,
      "name": "BS MOL PODGRAD",
      "address": "Podgrad 12a",
      "lat": 45.52107,
      "lng": 14.14733,
      "prices": {
        "95": 1.411,
        "dizel": 1.441,
        "98": null,
        "100": 1.642,
        "dizel-premium": 1.598,
        "avtoplin-lpg": null,
        "KOEL": null,
        "hvo": null,
        "cng": null,
        "lng": null
      },
      "distance": null,
      "direction": "",
      "open_hours": "Januar / Februar / Marec / Oktober / November / December\nPonedeljek, Torek, Sreda, Četrtek, Petek, Sobota\n06:00-20:00\n\nApril / Maj\nPonedeljek, Torek, Sreda, Četrtek, Petek, Sobota\n06:00-21:00\n\nJanuar / Februar / Marec / April / Maj / Oktober / November / December\nNedelja, Praznik\n08:00-20:00\n\nJunij / Julij / Avgust / September\nPonedeljek, Torek, Sreda, Četrtek, Petek, Sobota\n06:00-22:00\n\nJunij / Julij / Avgust / September\nNedelja, Praznik\n07:00-22:00\n",
      "zip_code": "6244"
    },
    {
      "pk": 841,
      "franchise": 2,
      "name": "BS MOL PORTOROŽ",
      "address": "Fizine 17",
      "lat": 45.515177,
      "lng": 13.580759,
      "prices": {
        "95": 1.411,
        "dizel": 1.441,
        "98": null,
        "100": 1.642,
        "dizel-premium": 1.598,
        "avtoplin-lpg": null,
        "KOEL": null,
        "hvo": null,
        "cng": null,
        "lng": null
      },
      "distance": null,
      "direction": "",
      "open_hours": "Januar / Februar / Marec / April / Maj / Oktober / November / December\n06:00-22:00\n\nJunij / Julij / Avgust / September\nPonedeljek, Torek, Sreda, Četrtek\n06:00-22:00\n\nJunij / Julij / Avgust / September\nPetek, Sobota, Nedelja, Praznik\n06:00-23:59\n",
      "zip_code": "6320"
    },
    {
      "pk": 842,
      "franchise": 2,
      "name": "BS MOL POSTOJNA TITOVA",
      "address": "Titova c.12",
      "lat": 45.77113,
      "lng": 14.201277,
      "prices": {
        "95": 1.411,
        "dizel": 1.441,
        "98": null,
        "100": 1.642,
        "dizel-premium": null,
        "avtoplin-lpg": null,
        "KOEL": 1.045,
        "hvo": null,
        "cng": null,
        "lng": null
      },
      "distance": null,
      "direction": "",
      "open_hours": "06:00-22:00\n",
      "zip_code": "6230"
    },
    {
      "pk": 844,
      "franchise": 2,
      "name": "BS MOL RADOVLJICA JUG",
      "address": "Ljubljanska cesta 70",
      "lat": 46.33865,
      "lng": 14.19095,
      "prices": {
        "95": 1.411,
        "dizel": 1.441,
        "98": null,
        "100": 1.764,
        "dizel-premium": 1.726,
        "avtoplin-lpg": 0.877,
        "KOEL": null,
        "hvo": null,
        "cng": null,
        "lng": null
      },
      "distance": null,
      "direction": "Ljubljana",
      "open_hours": "00:00-23:59\n",
      "zip_code": "4240"
    },
    {
      "pk": 845,
      "franchise": 2,
      "name": "BS MOL RADOVLJICA SEVER",
      "address": "Ljubljanska cesta 71",
      "lat": 46.33934,
      "lng": 14.19201,
      "prices": {
        "95": 1.411,
        "dizel": 1.441,
        "98": null,
        "100": 1.764,
        "dizel-premium": 1.726,
        "avtoplin-lpg": 0.877,
        "KOEL": null,
        "hvo": null,
        "cng": null,
        "lng": null
      },
      "distance": null,
      "direction": "Jesenice",
      "open_hours": "00:00-23:59\n",
      "zip_code": "4240"
    },
    {
      "pk": 846,
      "franchise": 2,
      "name": "BS MOL RAKEK",
      "address": "Partizanska 73a",
      "lat": 45.808113,
      "lng": 14.329101,
      "prices": {
        "95": 1.411,
        "dizel": 1.441,
        "98": null,
        "100": 1.642,
        "dizel-premium": null,
        "avtoplin-lpg": null,
        "KOEL": 1.045,
        "hvo": null,
        "cng": null,
        "lng": null
      },
      "distance": null,
      "direction": "",
      "open_hours": "06:00-22:00\n",
      "zip_code": "1381"
    },
    {
      "pk": 847,
      "franchise": 2,
      "name": "BS MOL RAVBARKOMANDA VZHOD",
      "address": "Javorniška pot 9a",
      "lat": 45.78312588,
      "lng": 14.22304178,
      "prices": {
        "95": 1.411,
        "dizel": 1.441,
        "98": null,
        "100": null,
        "dizel-premium": 1.726,
        "avtoplin-lpg": 0.877,
        "KOEL": null,
        "hvo": null,
        "cng": null,
        "lng": null
      },
      "distance": null,
      "direction": "Ljubljana",
      "open_hours": "00:00-23:59\n",
      "zip_code": "6230"
    },
    {
      "pk": 848,
      "franchise": 2,
      "name": "BS MOL RAVBARKOMANDA ZAHOD",
      "address": "Javorniška pot 7a",
      "lat": 45.78536414,
      "lng": 14.22271237,
      "prices": {
        "95": 1.411,
        "dizel": 1.441,
        "98": null,
        "100": null,
        "dizel-premium": 1.726,
        "avtoplin-lpg": 0.877,
        "KOEL": null,
        "hvo": null,
        "cng": null,
        "lng": null
      },
      "distance": null,
      "direction": "Koper",
      "open_hours": "00:00-23:59\n",
      "zip_code": "6230"
    },
    {
      "pk": 849,
      "franchise": 2,
      "name": "BS MOL ROŽNA DOLINA SEVER",
      "address": "Angela Besednjaka 8",
      "lat": 45.940972,
      "lng": 13.640395,
      "prices": {
        "95": 1.411,
        "dizel": 1.441,
        "98": null,
        "100": 1.642,
        "dizel-premium": 1.598,
        "avtoplin-lpg": null,
        "KOEL": null,
        "hvo": null,
        "cng": null,
        "lng": null
      },
      "distance": null,
      "direction": "",
      "open_hours": "Ponedeljek, Torek, Sreda, Četrtek, Petek, Sobota\n06:00-22:00\n\nNedelja, Praznik\n07:00-21:00\n",
      "zip_code": "5000"
    },
    {
      "pk": 851,
      "franchise": 2,
      "name": "BS MOL SENOVO",
      "address": "Titova ulica 101c",
      "lat": 46.02489,
      "lng": 15.47797,
      "prices": {
        "95": 1.411,
        "dizel": 1.441,
        "98": null,
        "100": 1.642,
        "dizel-premium": 1.598,
        "avtoplin-lpg": null,
        "KOEL": null,
        "hvo": null,
        "cng": null,
        "lng": null
      },
      "distance": null,
      "direction": "",
      "open_hours": "Ponedeljek, Torek, Sreda, Četrtek, Petek, Sobota\n06:00-22:00\n\nNedelja, Praznik\n07:00-21:00\n",
      "zip_code": "8281"
    },
    {
      "pk": 852,
      "franchise": 2,
      "name": "BS MOL SENOŽEČE",
      "address": "Senožeče 10a",
      "lat": 45.72321,
      "lng": 14.04572,
      "prices": {
        "95": 1.411,
        "dizel": 1.441,
        "98": null,
        "100": null,
        "dizel-premium": null,
        "avtoplin-lpg": null,
        "KOEL": null,
        "hvo": null,
        "cng": null,
        "lng": null
      },
      "distance": null,
      "direction": "",
      "open_hours": "Januar / Februar / Marec / Oktober / November / December\nPonedeljek, Torek, Sreda, Četrtek, Petek, Sobota\n07:00-19:00\n\nJanuar / Februar / Marec / Oktober / November / December\nNedelja, Praznik\n08:00-18:00\n\nApril / Maj / Junij / Julij / Avgust / September\nPonedeljek, Torek, Sreda, Četrtek, Petek, Sobota\n07:00-20:00\n\nApril / Maj / Junij / Julij / Avgust / September\nNedelja, Praznik\n08:00-20:00\n",
      "zip_code": "6224"
    },
    {
      "pk": 853,
      "franchise": 2,
      "name": "BS MOL SEŽANA",
      "address": "Partizanska 63a",
      "lat": 45.705649,
      "lng": 13.863156,
      "prices": {
        "95": 1.411,
        "dizel": 1.441,
        "98": null,
        "100": 1.642,
        "dizel-premium": null,
        "avtoplin-lpg": null,
        "KOEL": null,
        "hvo": null,
        "cng": null,
        "lng": null
      },
      "distance": null,
      "direction": "",
      "open_hours": "06:00-22:00\n",
      "zip_code": "6210"
    },
    {
      "pk": 854,
      "franchise": 2,
      "name": "BS MOL SLOVENSKA BISTRICA ŽOLGARJEVA",
      "address": "Žolgarjeva ulica 16",
      "lat": 46.385322,
      "lng": 15.571972,
      "prices": {
        "95": 1.411,
        "dizel": 1.441,
        "98": null,
        "100": 1.642,
        "dizel-premium": 1.598,
        "avtoplin-lpg": null,
        "KOEL": null,
        "hvo": null,
        "cng": null,
        "lng": null
      },
      "distance": null,
      "direction": "",
      "open_hours": "06:00-22:00\n",
      "zip_code": "2310"
    },
    {
      "pk": 855,
      "franchise": 2,
      "name": "BS MOL SLOVENSKE KONJICE",
      "address": "Liptovska 36a",
      "lat": 46.34068,
      "lng": 15.41675,
      "prices": {
        "95": 1.411,
        "dizel": 1.441,
        "98": null,
        "100": 1.642,
        "dizel-premium": null,
        "avtoplin-lpg": null,
        "KOEL": 1.045,
        "hvo": null,
        "cng": null,
        "lng": null
      },
      "distance": null,
      "direction": "",
      "open_hours": "06:00-22:00\n",
      "zip_code": "3210"
    },
    {
      "pk": 856,
      "franchise": 2,
      "name": "BS MOL SMEDNIK",
      "address": "Smednik 12a",
      "lat": 45.90773,
      "lng": 15.37137,
      "prices": {
        "95": 1.411,
        "dizel": 1.441,
        "98": null,
        "100": 1.642,
        "dizel-premium": 1.598,
        "avtoplin-lpg": 0.847,
        "KOEL": null,
        "hvo": null,
        "cng": null,
        "lng": null
      },
      "distance": null,
      "direction": "Novo Mesto",
      "open_hours": "06:00-22:00\n",
      "zip_code": "8274"
    },
    {
      "pk": 857,
      "franchise": 2,
      "name": "BS MOL SPODNJA IDRIJA",
      "address": "Vojkova ulica 24",
      "lat": 46.01699,
      "lng": 14.0288,
      "prices": {
        "95": 1.411,
        "dizel": 1.441,
        "98": null,
        "100": 1.642,
        "dizel-premium": 1.598,
        "avtoplin-lpg": null,
        "KOEL": 1.045,
        "hvo": null,
        "cng": null,
        "lng": null
      },
      "distance": null,
      "direction": "",
      "open_hours": "Ponedeljek, Torek, Sreda, Četrtek, Petek\n06:00-21:00\n\nSobota\n07:00-21:00\n\nNedelja, Praznik\n08:00-20:00\n",
      "zip_code": "5280"
    },
    {
      "pk": 858,
      "franchise": 2,
      "name": "BS MOL SPODNJI DUPLEK",
      "address": "C. 4.julija 69",
      "lat": 46.501143,
      "lng": 15.751535,
      "prices": {
        "95": 1.411,
        "dizel": 1.441,
        "98": null,
        "100": 1.642,
        "dizel-premium": null,
        "avtoplin-lpg": null,
        "KOEL": 1.045,
        "hvo": null,
        "cng": null,
        "lng": null
      },
      "distance": null,
      "direction": "",
      "open_hours": "Ponedeljek, Torek, Sreda, Četrtek, Petek, Sobota\n06:00-21:00\n\nNedelja, Praznik\n08:00-20:00\n",
      "zip_code": "2241"
    },
    {
      "pk": 859,
      "franchise": 2,
      "name": "BS MOL STARI TRG",
      "address": "C.Notranjskega odreda 5",
      "lat": 45.715829,
      "lng": 14.470974,
      "prices": {
        "95": 1.411,
        "dizel": 1.441,
        "98": null,
        "100": null,
        "dizel-premium": null,
        "avtoplin-lpg": null,
        "KOEL": null,
        "hvo": null,
        "cng": null,
        "lng": null
      },
      "distance": null,
      "direction": "",
      "open_hours": "Ponedeljek, Torek, Sreda, Četrtek, Petek\n07:00-19:00\n\nSobota\n07:00-15:00\n\nNedelja\n07:00-13:00\n",
      "zip_code": "1386"
    },
    {
      "pk": 861,
      "franchise": 2,
      "name": "BS MOL ŠEMPAS",
      "address": "Šempas 160b",
      "lat": 45.917693,
      "lng": 13.721916,
      "prices": {
        "95": 1.411,
        "dizel": 1.441,
        "98": null,
        "100": 1.764,
        "dizel-premium": 1.726,
        "avtoplin-lpg": 0.877,
        "KOEL": null,
        "hvo": null,
        "cng": null,
        "lng": null
      },
      "distance": null,
      "direction": "Nova Gorica",
      "open_hours": "00:00-23:59\n",
      "zip_code": "5261"
    },
    {
      "pk": 862,
      "franchise": 2,
      "name": "BS MOL ŠENTJUR",
      "address": "Ljubljanska c. 20a",
      "lat": 46.214942,
      "lng": 15.38352,
      "prices": {
        "95": 1.411,
        "dizel": 1.441,
        "98": null,
        "100": 1.642,
        "dizel-premium": 1.598,
        "avtoplin-lpg": null,
        "KOEL": 1.045,
        "hvo": null,
        "cng": null,
        "lng": null
      },
      "distance": null,
      "direction": "",
      "open_hours": "Ponedeljek, Torek, Sreda, Četrtek, Petek, Sobota\n06:00-22:00\n\nNedelja, Praznik\n07:00-21:00\n",
      "zip_code": "3230"
    },
    {
      "pk": 863,
      "franchise": 2,
      "name": "BS MOL ŠKOFIJE VZHOD",
      "address": "Sp.Škofije 260",
      "lat": 45.580603,
      "lng": 13.797535,
      "prices": {
        "95": 1.411,
        "dizel": 1.441,
        "98": null,
        "100": 1.692,
        "dizel-premium": null,
        "avtoplin-lpg": 0.847,
        "KOEL": 1.045,
        "hvo": null,
        "cng": null,
        "lng": null
      },
      "distance": null,
      "direction": "Trst",
      "open_hours": "Januar / Februar / Marec / April / Maj / Junij / September / Oktober / November / December\nPonedeljek, Torek, Sreda, Četrtek, Petek, Sobota\n06:00-21:00\n\nJanuar / Februar / Marec / April / Maj / Junij / September / Oktober / November / December\nNedelja, Praznik\n07:00-21:00\n\nJulij / Avgust\nPonedeljek, Torek, Sreda, Četrtek, Petek, Sobota\n06:00-22:00\n\nJulij / Avgust\nNedelja, Praznik\n07:00-22:00\n",
      "zip_code": "6281"
    },
    {
      "pk": 864,
      "franchise": 2,
      "name": "BS MOL ŠKOFIJE ZAHOD",
      "address": "Sp.Škofije 256a",
      "lat": 45.579851,
      "lng": 13.796288,
      "prices": {
        "95": 1.411,
        "dizel": 1.441,
        "98": null,
        "100": 1.692,
        "dizel-premium": null,
        "avtoplin-lpg": null,
        "KOEL": null,
        "hvo": null,
        "cng": null,
        "lng": null
      },
      "distance": null,
      "direction": "Koper",
      "open_hours": "Januar / Februar / Marec / April / Maj / Oktober / November / December\n06:00-22:00\n\nJunij / Julij / Avgust / September\n06:00-23:59\n",
      "zip_code": "6281"
    }
  ],
  "position": null
}
