{
  "count": 552,
  "next": "https://goriva.si/api/v1/search/?format=json&franchise=&name=&o=&page=18&position=&radius=",
  "previous": "https://goriva.si/api/v1/search/?format=json&franchise=&name=&o=&page=16&position=&radius=",
  "results": [
    {
      "pk": 2214,
      "franchise": 1,
      "name": "PETROL SLOVENJ GRADEC - RONKOVA SEVER",
      "address": "RONKOVA ULICA 2",
      "lat": 46.50629441,
      "lng": 15.08829225,
      "prices": {
        "95": 1.421,
        "dizel": 1.462,
        "98": null,
        "100": null,
        "dizel-premium": null,
        "avtoplin-lpg": 0.849,
        "KOEL": 1.068,
        "hvo": null,
        "cng": null,
        "lng": null
      },
      "distance": null,
      "direction": "",
      "open_hours": "Ponedeljek, Torek, Sreda, Četrtek, Petek\n06:00-18:00\n\nSobota\n07:00-18:00\n\nNedelja, Praznik\n08:00-16:00\n",
      "zip_code": "2380"
    },
    {
      "pk": 2215,
      "franchise": 1,
      "name": "PETROL SLOVENJ GRADEC - RONKOVA JUG",
      "address": "RONKOVA ULICA 25",
      "lat": 46.504186,
      "lng": 15.090699,
      "prices": {
        "95": 1.421,
        "dizel": 1.462,
        "98": null,
        "100": 1.65,
        "dizel-premium": null,
        "avtoplin-lpg": null,
        "KOEL": 1.068,
        "hvo": null,
        "cng": null,
        "lng": null
      },
      "distance": null,
      "direction": "",
      "open_hours": "00:00-23:59\n",
      "zip_code": "2380"
    },
    {
      "pk": 2216,
      "franchise": 1,
      "name": "PETROL LOPATA AC - SEVER",
      "address": "LOPATA 81",
      "lat": 46.262458,
      "lng": 15.222118,
      "prices": {
        "95": 1.421,
        "dizel": 1.462,
        "98": null,
        "100": 1.771,
        "dizel-premium": 1.98,
        "avtoplin-lpg": 0.879,
        "KOEL": null,
        "hvo": null,
        "cng": null,
        "lng": null
      },
      "distance": null,
      "direction": "Maribor -> Ljubljana",
      "open_hours": "00:00-23:59\n",
      "zip_code": "3000"
    },
    {
      "pk": 2217,
      "franchise": 1,
      "name": "PETROL ŠTORE",
      "address": "OBRTNIŠKA CESTA 2",
      "lat": 46.224064,
      "lng": 15.312733,
      "prices": {
        "95": 1.421,
        "dizel": 1.462,
        "98": null,
        "100": 1.65,
        "dizel-premium": null,
        "avtoplin-lpg": null,
        "KOEL": 1.068,
        "hvo": null,
        "cng": null,
        "lng": null
      },
      "distance": null,
      "direction": "",
      "open_hours": "Ponedeljek, Torek, Sreda, Četrtek, Petek\n06:00-18:00\n\nSobota\n07:00-15:00\n\nNedelja, Praznik\n08:30-12:00\n",
      "zip_code": "3220"
    },
    {
      "pk": 2218,
      "franchise": 1,
      "name": "PETROL ŠENTJUR",
      "address": "CESTA KOZJANSKEGA ODREDA 21A",
      "lat": 46.21307795,
      "lng": 15.40036462,
      "prices": {
        "95": 1.421,
        "dizel": 1.462,
        "98": null,
        "100": 1.65,
        "dizel-premium": null,
        "avtoplin-lpg": 0.849,
        "KOEL": 1.068,
        "hvo": null,
        "cng": null,
        "lng": null
      },
      "distance": null,
      "direction": "",
      "open_hours": "Ponedeljek, Torek, Sreda, Četrtek, Petek\n06:00-22:00\n\nSobota\n06:00-22:00\n\nNedelja, Praznik\n07:00-21:00\n",
      "zip_code": "3230"
    },
    {
      "pk": 2219,
      "franchise": 1,
      "name": "PETROL DOBRNA",
      "address": "PRISTOVA 21",
      "lat": 46.32717529,
      "lng": 15.22104794,
      "prices": {
        "95": 1.421,
        "dizel": 1.462,
        "98": null,
        "100": null,
        "dizel-premium": null,
        "avtoplin-lpg": null,
        "KOEL": 1.068,
        "hvo": null,
        "cng": null,
        "lng": null
      },
      "distance": null,
      "direction": "",
      "open_hours": "Ponedeljek, Torek, Sreda, Četrtek, Petek\n07:00-19:00\n\nSobota\n07:00-17:00\n\nNedelja, Praznik\n08:30-12:00\n",
      "zip_code": "3204"
    },
    {
      "pk": 2220,
      "franchise": 1,
      "name": "PETROL KOČEVJE - LJUBLJANSKA ZAHOD",
      "address": "LJUBLJANSKA CESTA 69A",
      "lat": 45.64870304,
      "lng": 14.85374303,
      "prices": {
        "95": 1.421,
        "dizel": 1.462,
        "98": null,
        "100": 1.65,
        "dizel-premium": 1.858,
        "avtoplin-lpg": 0.849,
        "KOEL": 1.068,
        "hvo": null,
        "cng": null,
        "lng": null
      },
      "distance": null,
      "direction": "",
      "open_hours": "Ponedeljek, Torek, Sreda, Četrtek, Petek\n06:00-22:00\n\nSobota\n06:00-22:00\n\nNedelja, Praznik\n08:00-21:00\n",
      "zip_code": "1330"
    },
    {
      "pk": 2222,
      "franchise": 1,
      "name": "PETROL KOČEVJE - LJUBLJANSKA VZHOD",
      "address": "LJUBLJANSKA CESTA 44",
      "lat": 45.64954924,
      "lng": 14.85397187,
      "prices": {
        "95": 1.421,
        "dizel": 1.462,
        "98": null,
        "100": 1.65,
        "dizel-premium": null,
        "avtoplin-lpg": null,
        "KOEL": 1.068,
        "hvo": null,
        "cng": null,
        "lng": null
      },
      "distance": null,
      "direction": "",
      "open_hours": "Ponedeljek, Torek, Sreda, Četrtek, Petek\n05:00-20:00\n\nSobota\n07:00-12:00, 12:30-15:00\n",
      "zip_code": "1330"
    },
    {
      "pk": 2223,
      "franchise": 1,
      "name": "PETROL PETRINA",
      "address": "PETRINA 10",
      "lat": 45.46509102,
      "lng": 14.8550985,
      "prices": {
        "95": 1.421,
        "dizel": 1.462,
        "98": null,
        "100": null,
        "dizel-premium": null,
        "avtoplin-lpg": null,
        "KOEL": 1.068,
        "hvo": null,
        "cng": null,
        "lng": null
      },
      "distance": null,
      "direction": "",
      "open_hours": "Ponedeljek\n09:00-12:00, 12:30-16:00\n\nTorek\n09:00-12:00, 12:30-16:00\n\nSreda\n09:00-12:00, 12:30-18:00\n\nČetrtek\n09:00-12:00, 12:30-16:00\n\nPetek\n09:00-12:00, 12:30-16:00\n\nSobota\n07:00-10:30, 11:00-13:00\n",
      "zip_code": "1336"
    },
    {
      "pk": 2224,
      "franchise": 1,
      "name": "PETROL LOŠKI POTOK",
      "address": "MALI LOG 2B",
      "lat": 45.717099,
      "lng": 14.58622,
      "prices": {
        "95": 1.421,
        "dizel": 1.462,
        "98": null,
        "100": null,
        "dizel-premium": null,
        "avtoplin-lpg": null,
        "KOEL": 1.068,
        "hvo": null,
        "cng": null,
        "lng": null
      },
      "distance": null,
      "direction": "",
      "open_hours": "Ponedeljek, Torek, Sreda, Četrtek, Petek\n08:00-11:30, 12:00-16:00\n\nSobota\n08:00-12:00\n",
      "zip_code": "1318"
    },
    {
      "pk": 2225,
      "franchise": 1,
      "name": "PETROL NOVO MESTO - TOPLIŠKA",
      "address": "TOPLIŠKA CESTA 9",
      "lat": 45.79863637,
      "lng": 15.15095997,
      "prices": {
        "95": 1.421,
        "dizel": 1.462,
        "98": null,
        "100": 1.65,
        "dizel-premium": null,
        "avtoplin-lpg": null,
        "KOEL": 1.068,
        "hvo": null,
        "cng": null,
        "lng": null
      },
      "distance": null,
      "direction": "",
      "open_hours": "Ponedeljek, Torek, Sreda, Četrtek, Petek\n06:00-22:00\n\nSobota\n06:00-22:00\n\nNedelja, Praznik\n07:30-21:00\n",
      "zip_code": "8000"
    },
    {
      "pk": 2227,
      "franchise": 1,
      "name": "PETROL NOVO MESTO - BRŠLJIN",
      "address": "LJUBLJANSKA CESTA 28A",
      "lat": 45.81628712,
      "lng": 15.1547285,
      "prices": {
        "95": 1.421,
        "dizel": 1.462,
        "98": null,
        "100": 1.65,
        "dizel-premium": null,
        "avtoplin-lpg": 0.849,
        "KOEL": null,
        "hvo": null,
        "cng": null,
        "lng": null
      },
      "distance": null,
      "direction": "",
      "open_hours": "Ponedeljek, Torek, Sreda, Četrtek, Petek\n06:00-22:00\n\nSobota\n06:00-22:00\n\nNedelja, Praznik\n07:00-22:00\n",
      "zip_code": "8000"
    },
    {
      "pk": 2228,
      "franchise": 1,
      "name": "PETROL NOVO MESTO - ŽABJA VAS",
      "address": "BELOKRANJSKA CESTA 3",
      "lat": 45.797682,
      "lng": 15.181242,
      "prices": {
        "95": 1.421,
        "dizel": 1.462,
        "98": null,
        "100": 1.65,
        "dizel-premium": null,
        "avtoplin-lpg": 0.849,
        "KOEL": 1.068,
        "hvo": null,
        "cng": null,
        "lng": null
      },
      "distance": null,
      "direction": "",
      "open_hours": "00:00-23:59\n",
      "zip_code": "8000"
    },
    {
      "pk": 2229,
      "franchise": 1,
      "name": "PETROL STARINE AC - JUG",
      "address": "ZAGRAD PRI OTOČCU 111",
      "lat": 45.841312,
      "lng": 15.217206,
      "prices": {
        "95": 1.421,
        "dizel": 1.462,
        "98": null,
        "100": 1.771,
        "dizel-premium": 1.98,
        "avtoplin-lpg": 0.879,
        "KOEL": null,
        "hvo": null,
        "cng": null,
        "lng": null
      },
      "distance": null,
      "direction": "",
      "open_hours": "00:00-23:59\n",
      "zip_code": "8222"
    },
    {
      "pk": 2230,
      "franchise": 1,
      "name": "PETROL STARINE AC - SEVER",
      "address": "ZAGRAD PRI OTOČCU 110",
      "lat": 45.841967,
      "lng": 15.216726,
      "prices": {
        "95": 1.421,
        "dizel": 1.462,
        "98": null,
        "100": 1.771,
        "dizel-premium": 1.98,
        "avtoplin-lpg": 0.879,
        "KOEL": null,
        "hvo": null,
        "cng": null,
        "lng": null
      },
      "distance": null,
      "direction": "",
      "open_hours": "00:00-23:59\n",
      "zip_code": "8222"
    },
    {
      "pk": 2231,
      "franchise": 1,
      "name": "PETROL DUL AC - JUG",
      "address": "DOLENJI PODBORŠT PRI TREB. 50",
      "lat": 45.898858,
      "lng": 15.026398,
      "prices": {
        "95": 1.421,
        "dizel": 1.462,
        "98": null,
        "100": 1.771,
        "dizel-premium": 1.98,
        "avtoplin-lpg": 0.879,
        "KOEL": null,
        "hvo": null,
        "cng": null,
        "lng": null
      },
      "distance": null,
      "direction": "Ljubljana -> Novo Me",
      "open_hours": "00:00-23:59\n",
      "zip_code": "8210"
    },
    {
      "pk": 2232,
      "franchise": 1,
      "name": "PETROL PODLEHNIK AC - ZAHOD",
      "address": "DEŽNO PRI PODLEHNIKU 2",
      "lat": 46.329098,
      "lng": 15.878359,
      "prices": {
        "95": 1.421,
        "dizel": 1.462,
        "98": null,
        "100": 1.771,
        "dizel-premium": 1.98,
        "avtoplin-lpg": 0.879,
        "KOEL": null,
        "hvo": null,
        "cng": null,
        "lng": null
      },
      "distance": null,
      "direction": "",
      "open_hours": "00:00-23:59\n",
      "zip_code": "2286"
    },
    {
      "pk": 2233,
      "franchise": 1,
      "name": "PETROL MENGEŠ - KAMNIŠKA",
      "address": "KAMNIŠKA CESTA 60",
      "lat": 46.172911,
      "lng": 14.577254,
      "prices": {
        "95": 1.421,
        "dizel": 1.462,
        "98": null,
        "100": 1.65,
        "dizel-premium": null,
        "avtoplin-lpg": 0.849,
        "KOEL": null,
        "hvo": null,
        "cng": null,
        "lng": null
      },
      "distance": null,
      "direction": "Ljubljana -> Maribor",
      "open_hours": "Ponedeljek, Torek, Sreda, Četrtek, Petek\n05:00-22:00\n\nSobota\n06:00-22:00\n\nNedelja, Praznik\n07:00-21:00\n",
      "zip_code": "1234"
    },
    {
      "pk": 2234,
      "franchise": 2,
      "name": "BS MOL TEZNO",
      "address": "Ptujska cesta 56",
      "lat": 46.537696,
      "lng": 15.655975,
      "prices": {
        "95": 1.421,
        "dizel": 1.462,
        "98": null,
        "100": 1.651,
        "dizel-premium": 1.629,
        "avtoplin-lpg": 0.847,
        "KOEL": null,
        "hvo": null,
        "cng": null,
        "lng": null
      },
      "distance": null,
      "direction": "",
      "open_hours": "00:00-23:59\n",
      "zip_code": "2000"
    },
    {
      "pk": 2235,
      "franchise": 2,
      "name": "BS MOL KRANJ",
      "address": "Ulica Boštjana Hladnika 4",
      "lat": 46.230565,
      "lng": 14.369373,
      "prices": {
        "95": 1.421,
        "dizel": 1.462,
        "98": null,
        "100": 1.651,
        "dizel-premium": 1.629,
        "avtoplin-lpg": 0.847,
        "KOEL": null,
        "hvo": null,
        "cng": null,
        "lng": null
      },
      "distance": null,
      "direction": "",
      "open_hours": "Ponedeljek, Torek, Sreda, Četrtek, Petek, Sobota\n06:00-22:00\n\nNedelja, Praznik\n08:00-20:00\n",
      "zip_code": "4000"
    },
    {
      "pk": 2236,
      "franchise": 2,
      "name": "BS MOL PTUJ ORMOŠKA",
      "address": "Ormoška cesta 32",
      "lat": 46.41600383,
      "lng": 15.88503332,
      "prices": {
        "95": 1.421,
        "dizel": 1.462,
        "98": null,
        "100": 1.651,
        "dizel-premium": 1.629,
        "avtoplin-lpg": 0.847,
        "KOEL": null,
        "hvo": null,
        "cng": null,
        "lng": null
      },
      "distance": null,
      "direction": "",
      "open_hours": "Ponedeljek, Torek, Sreda, Četrtek, Petek, Sobota\n06:00-22:00\n\nNedelja, Praznik\n08:00-20:00\n",
      "zip_code": "2250"
    },
    {
      "pk": 2237,
      "franchise": 3,
      "name": "BS MAXEN TRŽIČ",
      "address": "Cesta Ste Marie aux Mines bš",
      "lat": 46.3583296,
      "lng": 14.2978288,
      "prices": {
        "95": 1.421,
        "dizel": 1.462,
        "98": null,
        "100": null,
        "dizel-premium": null,
        "avtoplin-lpg": null,
        "KOEL": null,
        "hvo": null,
        "cng": null,
        "lng": null
      },
      "distance": null,
      "direction": "",
      "open_hours": "24/7",
      "zip_code": "4290"
    },
    {
      "pk": 2238,
      "franchise": 3,
      "name": "BS MAXEN KOPER",
      "address": "Ulica 15. maja bš",
      "lat": 45.5371584,
      "lng": 13.7323296,
      "prices": {
        "95": 1.421,
        "dizel": 1.462,
        "98": null,
        "100": null,
        "dizel-premium": null,
        "avtoplin-lpg": null,
        "KOEL": null,
        "hvo": null,
        "cng": null,
        "lng": null
      },
      "distance": null,
      "direction": "",
      "open_hours": "24/7",
      "zip_code": "6000"
    },
    {
      "pk": 2239,
      "franchise": 3,
      "name": "BS MAXEN NIZKA",
      "address": "Nizka bš",
      "lat": 46.3157792,
      "lng": 14.9116624,
      "prices": {
        "95": 1.421,
        "dizel": 1.462,
        "98": null,
        "100": null,
        "dizel-premium": null,
        "avtoplin-lpg": null,
        "KOEL": null,
        "hvo": null,
        "cng": null,
        "lng": null
      },
      "distance": null,
      "direction": "",
      "open_hours": "24/7",
      "zip_code": "3332"
    },
    {
      "pk": 2240,
      "franchise": 3,
      "name": "BS MAXEN GORNJA RADGONA",
      "address": "Ljutomerska cesta bš",
      "lat": 46.6636544,
      "lng": 16.0091968,
      "prices": {
        "95": 1.421,
        "dizel": 1.462,
        "98": null,
        "100": null,
        "dizel-premium": null,
        "avtoplin-lpg": null,
        "KOEL": null,
        "hvo": null,
        "cng": null,
        "lng": null
      },
      "distance": null,
      "direction": "",
      "open_hours": "24/7",
      "zip_code": "9250"
    }
  ],
  "position": null
}
