{
  "count": 552,
  "next": "https://goriva.si/api/v1/search/?format=json&franchise=&name=&o=&page=2&position=&radius=",
  "previous": null,
  "results": [
    {
      "pk": 2296,
      "franchise": 15,
      "name": "DISCONT OiL - BS Maribor",
      "address": "Tržaška cesta 35",
      "lat": 46.529195,
      "lng": 15.646512,
      "prices": {
        "95": 1.439,
        "dizel": 1.465,
        "98": null,
        "100": 1.609,
        "dizel-premium": null,
        "avtoplin-lpg": 0.769,
        "KOEL": null,
        "hvo": null,
        "cng": null,
        "lng": null
      },
      "distance": null,
      "direction": "",
      "open_hours": "Odpiralni čas:\r\nPonedeljek - petek: 07:00 - 20:00\r\nSobota: 07:00 - 19:00\r\nNedelja in prazniki: 08:00 - 13:00",
      "zip_code": "2000"
    },
    {
      "pk": 769,
      "franchise": 4,
      "name": "BS MOL BRESTOVICA",
      "address": "Brestovica 116b",
      "lat": 45.81302,
      "lng": 13.62228,
      "prices": {
        "95": 1.451,
        "dizel": 1.485,
        "98": null,
        "100": 1.669,
        "dizel-premium": 1.649,
        "avtoplin-lpg": 0.822,
        "KOEL": 1.082,
        "hvo": null,
        "cng": null,
        "lng": null
      },
      "distance": null,
      "direction": "",
      "open_hours": "Januar / Februar / Marec / Oktober / November / December\n07:00-19:00\n\nApril / Maj / Junij / Julij / Avgust / September\n07:00-20:00\n",
      "zip_code": "6223"
    },
    {
      "pk": 771,
      "franchise": 2,
      "name": "BS MOL BREŽICE",
      "address": "C.Svobode 35",
      "lat": 45.913737,
      "lng": 15.595365,
      "prices": {
        "95": 1.451,
        "dizel": 1.485,
        "98": null,
        "100": 1.669,
        "dizel-premium": 1.649,
        "avtoplin-lpg": null,
        "KOEL": 1.082,
        "hvo": null,
        "cng": null,
        "lng": null
      },
      "distance": null,
      "direction": "",
      "open_hours": "06:00-22:00\n",
      "zip_code": "8250"
    },
    {
      "pk": 773,
      "franchise": 4,
      "name": "BS MOL CELJE MARIBORSKA JUG",
      "address": "Mariborska c. 84",
      "lat": 46.23923,
      "lng": 15.27456,
      "prices": {
        "95": 1.451,
        "dizel": 1.485,
        "98": null,
        "100": 1.669,
        "dizel-premium": 1.649,
        "avtoplin-lpg": null,
        "KOEL": 1.082,
        "hvo": null,
        "cng": null,
        "lng": null
      },
      "distance": null,
      "direction": "",
      "open_hours": "Ponedeljek, Torek, Sreda, Četrtek, Petek\n05:00-22:00\n\nSobota, Nedelja, Praznik\n06:00-22:00\n",
      "zip_code": "3000"
    },
    {
      "pk": 774,
      "franchise": 2,
      "name": "BS MOL CELJE LJUBLJANSKA",
      "address": "Ljubljanska cesta 110",
      "lat": 46.238118,
      "lng": 15.235194,
      "prices": {
        "95": 1.451,
        "dizel": 1.485,
        "98": null,
        "100": 1.669,
        "dizel-premium": null,
        "avtoplin-lpg": null,
        "KOEL": null,
        "hvo": null,
        "cng": null,
        "lng": null
      },
      "distance": null,
      "direction": "",
      "open_hours": "Ponedeljek, Torek, Sreda, Četrtek, Petek\n06:00-22:00\n\nSobota, Nedelja, Praznik\n07:00-21:00\n",
      "zip_code": "3000"
    },
    {
      "pk": 775,
      "franchise": 4,
      "name": "BS MOL ČRNOMELJ",
      "address": "Belokranjska c. 18a",
      "lat": 45.57995,
      "lng": 15.19583,
      "prices": {
        "95": 1.451,
        "dizel": 1.485,
        "98": null,
        "100": 1.669,
        "dizel-premium": 1.649,
        "avtoplin-lpg": null,
        "KOEL": 1.082,
        "hvo": null,
        "cng": null,
        "lng": null
      },
      "distance": null,
      "direction": "",
      "open_hours": "Januar / Februar / Marec / April / November / December\nPonedeljek, Torek, Sreda, Četrtek, Petek, Sobota\n06:00-21:00\n\nJanuar / Februar / Marec / April / November / December\nNedelja, Praznik\n08:00-20:00\n\nMaj / Junij / Julij / Avgust / September / Oktober\nPonedeljek, Torek, Sreda, Četrtek, Petek, Sobota\n06:00-22:00\n\nMaj / Junij / Julij / Avgust / September / Oktober\nNedelja, Praznik\n08:00-21:00\n",
      "zip_code": "8340"
    },
    {
      "pk": 776,
      "franchise": 4,
      "name": "BS MOL DIVAČA",
      "address": "Kolodvorska 1",
      "lat": 45.681494,
      "lng": 13.968687,
      "prices": {
        "95": 1.451,
        "dizel": 1.485,
        "98": null,
        "100": 1.669,
        "dizel-premium": 1.649,
        "avtoplin-lpg": null,
        "KOEL": 1.082,
        "hvo": null,
        "cng": null,
        "lng": null
      },
      "distance": null,
      "direction": "",
      "open_hours": "Ponedeljek, Torek, Sreda, Četrtek, Petek, Sobota\n06:00-20:00\n\nNedelja, Praznik\n09:00-18:00\n",
      "zip_code": "6215"
    },
    {
      "pk": 777,
      "franchise": 2,
      "name": "BS MOL DOBRENJE VZHOD",
      "address": "Sp.Dobrenje 41a",
      "lat": 46.605931,
      "lng": 15.663342,
      "prices": {
        "95": 1.451,
        "dizel": 1.485,
        "98": null,
        "100": 1.789,
        "dizel-premium": 1.774,
        "avtoplin-lpg": null,
        "KOEL": null,
        "hvo": null,
        "cng": null,
        "lng": null
      },
      "distance": null,
      "direction": "Gradec",
      "open_hours": "00:00-23:59\n",
      "zip_code": "2211"
    },
    {
      "pk": 778,
      "franchise": 2,
      "name": "BS MOL DOBRENJE ZAHOD",
      "address": "Sp.Dobrenje 41d",
      "lat": 46.609699,
      "lng": 15.662384,
      "prices": {
        "95": 1.451,
        "dizel": 1.485,
        "98": null,
        "100": 1.789,
        "dizel-premium": 1.774,
        "avtoplin-lpg": null,
        "KOEL": null,
        "hvo": null,
        "cng": null,
        "lng": null
      },
      "distance": null,
      "direction": "Maribor",
      "open_hours": "00:00-23:59\n",
      "zip_code": "2211"
    },
    {
      "pk": 779,
      "franchise": 4,
      "name": "BS MOL DOL PRI LJUBLJANI",
      "address": "Podgora pri Dolskem 40",
      "lat": 46.090168,
      "lng": 14.650805,
      "prices": {
        "95": 1.451,
        "dizel": 1.485,
        "98": null,
        "100": 1.669,
        "dizel-premium": 1.649,
        "avtoplin-lpg": null,
        "KOEL": 1.082,
        "hvo": null,
        "cng": null,
        "lng": null
      },
      "distance": null,
      "direction": "",
      "open_hours": "Ponedeljek, Torek, Sreda, Četrtek, Petek\n06:00-21:00\n\nSobota, Nedelja, Praznik\n07:00-20:00\n",
      "zip_code": "1262"
    },
    {
      "pk": 780,
      "franchise": 2,
      "name": "BS MOL DRAVOGRAD",
      "address": "Koroška c. 49",
      "lat": 46.59033,
      "lng": 15.01542,
      "prices": {
        "95": 1.451,
        "dizel": 1.485,
        "98": null,
        "100": 1.669,
        "dizel-premium": 1.673,
        "avtoplin-lpg": null,
        "KOEL": 1.082,
        "hvo": null,
        "cng": null,
        "lng": null
      },
      "distance": null,
      "direction": "",
      "open_hours": "Januar / Februar / Marec / April / Oktober / November / December\nPonedeljek, Torek, Sreda, Četrtek, Petek, Sobota\n05:30-20:00\n\nMaj / Junij / Julij / Avgust / September\nPonedeljek, Torek, Sreda, Četrtek, Petek, Sobota\n07:00-21:00\n\nNedelja, Praznik\n07:00-20:00\n",
      "zip_code": "2370"
    },
    {
      "pk": 781,
      "franchise": 4,
      "name": "BS MOL DRAVSKO POLJE JUG",
      "address": "Gerečja vas 1h",
      "lat": 46.428962,
      "lng": 15.794118,
      "prices": {
        "95": 1.451,
        "dizel": 1.485,
        "98": null,
        "100": 1.789,
        "dizel-premium": 1.774,
        "avtoplin-lpg": 0.848,
        "KOEL": null,
        "hvo": null,
        "cng": null,
        "lng": null
      },
      "distance": null,
      "direction": "Zagreb",
      "open_hours": "00:00-23:59\n",
      "zip_code": "2288"
    },
    {
      "pk": 782,
      "franchise": 4,
      "name": "BS MOL DRAVSKO POLJE SEVER",
      "address": "Gerečja vas 1g",
      "lat": 46.428104,
      "lng": 15.796613,
      "prices": {
        "95": 1.451,
        "dizel": 1.485,
        "98": null,
        "100": 1.789,
        "dizel-premium": 1.774,
        "avtoplin-lpg": 0.848,
        "KOEL": null,
        "hvo": null,
        "cng": null,
        "lng": null
      },
      "distance": null,
      "direction": "Maribor",
      "open_hours": "00:00-23:59\n",
      "zip_code": "2288"
    },
    {
      "pk": 783,
      "franchise": 2,
      "name": "BS MOL DUTOVLJE",
      "address": "Dutovlje 3b",
      "lat": 45.755992,
      "lng": 13.835896,
      "prices": {
        "95": 1.451,
        "dizel": 1.485,
        "98": null,
        "100": 1.669,
        "dizel-premium": null,
        "avtoplin-lpg": null,
        "KOEL": 1.082,
        "hvo": null,
        "cng": null,
        "lng": null
      },
      "distance": null,
      "direction": "",
      "open_hours": "Januar / Februar / Marec / Oktober / November / December\n07:00-20:00\n\nApril / Maj / Junij / Julij / Avgust / September\n07:00-21:00\n",
      "zip_code": "6221"
    },
    {
      "pk": 789,
      "franchise": 4,
      "name": "BS MOL FERNETIČI",
      "address": "Partizanska c. 151",
      "lat": 45.701768,
      "lng": 13.841505,
      "prices": {
        "95": 1.451,
        "dizel": 1.485,
        "98": null,
        "100": 1.669,
        "dizel-premium": 1.649,
        "avtoplin-lpg": 0.818,
        "KOEL": 1.082,
        "hvo": null,
        "cng": null,
        "lng": null
      },
      "distance": null,
      "direction": "Sežana",
      "open_hours": "07:00-22:00\n",
      "zip_code": "6210"
    },
    {
      "pk": 790,
      "franchise": 4,
      "name": "BS MOL FERNETIČI JUG",
      "address": "Partizanska c. 98",
      "lat": 45.704437,
      "lng": 13.846496,
      "prices": {
        "95": 1.451,
        "dizel": 1.485,
        "98": null,
        "100": 1.789,
        "dizel-premium": 1.774,
        "avtoplin-lpg": null,
        "KOEL": null,
        "hvo": null,
        "cng": null,
        "lng": null
      },
      "distance": null,
      "direction": "Ljubljana",
      "open_hours": "00:00-23:59\n",
      "zip_code": "6210"
    },
    {
      "pk": 791,
      "franchise": 4,
      "name": "BS MOL FERNETIČI SEVER",
      "address": "Partizanska c. 130",
      "lat": 45.70492,
      "lng": 13.84554,
      "prices": {
        "95": 1.451,
        "dizel": 1.485,
        "98": null,
        "100": 1.789,
        "dizel-premium": 1.774,
        "avtoplin-lpg": 0.848,
        "KOEL": null,
        "hvo": null,
        "cng": null,
        "lng": null
      },
      "distance": null,
      "direction": "Benetke",
      "open_hours": "00:00-23:59\n",
      "zip_code": "6210"
    },
    {
      "pk": 793,
      "franchise": 2,
      "name": "BS MOL GRABONOŠ",
      "address": "Grabonoš 4c",
      "lat": 46.584129,
      "lng": 16.008947,
      "prices": {
        "95": 1.451,
        "dizel": 1.485,
        "98": null,
        "100": 1.789,
        "dizel-premium": 1.774,
        "avtoplin-lpg": 0.848,
        "KOEL": null,
        "hvo": null,
        "cng": null,
        "lng": null
      },
      "distance": null,
      "direction": "Lenti",
      "open_hours": "00:00-23:59\n",
      "zip_code": "9244"
    },
    {
      "pk": 794,
      "franchise": 2,
      "name": "BS MOL GRAČIŠČE",
      "address": "Gračišče 4a",
      "lat": 45.501301,
      "lng": 13.873635,
      "prices": {
        "95": 1.451,
        "dizel": 1.485,
        "98": null,
        "100": null,
        "dizel-premium": null,
        "avtoplin-lpg": null,
        "KOEL": 1.082,
        "hvo": null,
        "cng": null,
        "lng": null
      },
      "distance": null,
      "direction": "",
      "open_hours": "Januar / Februar / Marec / Oktober / November / December\nPonedeljek, Torek, Sreda, Četrtek, Petek, Sobota\n06:00-20:00\n\nJanuar / Februar / Marec / Oktober / November / December\nNedelja, Praznik\n08:00-20:00\n\nApril / Maj / Junij / Julij / Avgust / September\nPonedeljek, Torek, Sreda, Četrtek, Petek, Sobota\n06:00-21:00\n\nApril / Maj / Junij / Julij / Avgust / September\nNedelja, Praznik\n07:00-21:00\n",
      "zip_code": "6272"
    },
    {
      "pk": 796,
      "franchise": 4,
      "name": "BS MOL GROSUPLJE CIKAVA",
      "address": "Ljubljanska cesta 129",
      "lat": 45.9730555555556,
      "lng": 14.625555555555556,
      "prices": {
        "95": 1.451,
        "dizel": 1.485,
        "98": null,
        "100": 1.789,
        "dizel-premium": 1.774,
        "avtoplin-lpg": 0.848,
        "KOEL": null,
        "hvo": null,
        "cng": null,
        "lng": null
      },
      "distance": null,
      "direction": "Grosuplje",
      "open_hours": "00:00-23:59\n",
      "zip_code": "1290"
    },
    {
      "pk": 797,
      "franchise": 2,
      "name": "BS MOL ILIRSKA BISTRICA",
      "address": "Bazoviška 45",
      "lat": 45.559604,
      "lng": 14.244346,
      "prices": {
        "95": 1.451,
        "dizel": 1.485,
        "98": null,
        "100": 1.669,
        "dizel-premium": 1.649,
        "avtoplin-lpg": null,
        "KOEL": 1.082,
        "hvo": null,
        "cng": null,
        "lng": null
      },
      "distance": null,
      "direction": "",
      "open_hours": "01.09.2025 – 25.06.2026\n05:00-22:00\n\n26.06.2026 – 31.08.2026\n00:00-23:59\n",
      "zip_code": "6250"
    },
    {
      "pk": 798,
      "franchise": 4,
      "name": "BS MOL IZOLA",
      "address": "Prešernova cesta 1a",
      "lat": 45.53687,
      "lng": 13.66795,
      "prices": {
        "95": 1.451,
        "dizel": 1.485,
        "98": null,
        "100": 1.669,
        "dizel-premium": 1.649,
        "avtoplin-lpg": null,
        "KOEL": 1.082,
        "hvo": null,
        "cng": null,
        "lng": null
      },
      "distance": null,
      "direction": "",
      "open_hours": "06:00-22:00\n",
      "zip_code": "6310"
    },
    {
      "pk": 800,
      "franchise": 4,
      "name": "BS MOL KAMNIK",
      "address": "Perovo 32",
      "lat": 46.208865,
      "lng": 14.606844,
      "prices": {
        "95": 1.451,
        "dizel": 1.485,
        "98": null,
        "100": 1.669,
        "dizel-premium": 1.649,
        "avtoplin-lpg": null,
        "KOEL": 1.082,
        "hvo": null,
        "cng": null,
        "lng": null
      },
      "distance": null,
      "direction": "",
      "open_hours": "05:00-22:00\n",
      "zip_code": "1240"
    },
    {
      "pk": 802,
      "franchise": 2,
      "name": "BS MOL KOMEN",
      "address": "Komen 119a",
      "lat": 45.816868,
      "lng": 13.745429,
      "prices": {
        "95": 1.451,
        "dizel": 1.485,
        "98": null,
        "100": 1.669,
        "dizel-premium": null,
        "avtoplin-lpg": null,
        "KOEL": null,
        "hvo": null,
        "cng": null,
        "lng": null
      },
      "distance": null,
      "direction": "",
      "open_hours": "Januar / Februar / Marec / Oktober / November / December\n07:00-19:00\n\nApril / Maj / Junij / Julij / Avgust / September\n07:00-20:00\n",
      "zip_code": "6223"
    },
    {
      "pk": 804,
      "franchise": 4,
      "name": "BS MOL KOPER BONIFIKA",
      "address": "Istrska cesta 14",
      "lat": 45.5404,
      "lng": 13.7263,
      "prices": {
        "95": 1.451,
        "dizel": 1.485,
        "98": null,
        "100": 1.719,
        "dizel-premium": 1.699,
        "avtoplin-lpg": 0.818,
        "KOEL": 1.096,
        "hvo": null,
        "cng": null,
        "lng": null
      },
      "distance": null,
      "direction": "Portorož",
      "open_hours": "00:00-23:59\n",
      "zip_code": "6000"
    }
  ],
  "position": null
}
