{
  "count": 552,
  "next": "https://goriva.si/api/v1/search/?format=json&franchise=&name=&o=&page=20&position=&radius=",
  "previous": "https://goriva.si/api/v1/search/?format=json&franchise=&name=&o=&page=18&position=&radius=",
  "results": [
    {
      "pk": 2299,
      "franchise": 16,
      "name": "Agas Slovenska Bistrica",
      "address": "Žolgarjeva ulica 25",
      "lat": 46.385204,
      "lng": 15.576529,
      "prices": {
        "95": 1.433,
        "dizel": 1.449,
        "98": null,
        "100": null,
        "dizel-premium": null,
        "avtoplin-lpg": 0.769,
        "KOEL": 1.039,
        "hvo": null,
        "cng": null,
        "lng": null
      },
      "distance": null,
      "direction": "Izvoz Slovenska Bistrica jug",
      "open_hours": "Pon do Pet 7:00 - 20:00\r\nSob             8:00 - 13:00",
      "zip_code": "2310"
    },
    {
      "pk": 2302,
      "franchise": 19,
      "name": "LOGO BENCINSKI SERVISI d.o.o. PE BREZOVICA",
      "address": "Tržaška cesta 358",
      "lat": 46.026026,
      "lng": 14.4284534,
      "prices": {
        "95": 1.433,
        "dizel": 1.449,
        "98": null,
        "100": null,
        "dizel-premium": null,
        "avtoplin-lpg": null,
        "KOEL": 1.049,
        "hvo": null,
        "cng": null,
        "lng": null
      },
      "distance": null,
      "direction": "",
      "open_hours": "6.00-22.30",
      "zip_code": "1351"
    },
    {
      "pk": 2303,
      "franchise": 19,
      "name": "Bencinski servis Tupaliče",
      "address": "Tupaliče 35a",
      "lat": 46.2955877,
      "lng": 14.4297645,
      "prices": {
        "95": 1.433,
        "dizel": 1.449,
        "98": null,
        "100": null,
        "dizel-premium": null,
        "avtoplin-lpg": null,
        "KOEL": 1.049,
        "hvo": null,
        "cng": null,
        "lng": null
      },
      "distance": null,
      "direction": "",
      "open_hours": "Vsak dan od 6.00-21.00\r\nNedelja od 7.00-22.00",
      "zip_code": "4205"
    },
    {
      "pk": 2304,
      "franchise": 19,
      "name": "Bencinski servis Velika Pirešica",
      "address": "Velika Pirešica 60",
      "lat": 46.28633117675781,
      "lng": 15.176063537597656,
      "prices": {
        "95": 1.433,
        "dizel": 1.449,
        "98": 0.001,
        "100": 1.688,
        "dizel-premium": null,
        "avtoplin-lpg": null,
        "KOEL": 1.049,
        "hvo": null,
        "cng": null,
        "lng": null
      },
      "distance": null,
      "direction": "",
      "open_hours": "6.00-22.00",
      "zip_code": "3310"
    },
    {
      "pk": 2305,
      "franchise": 19,
      "name": "Bencinski servis Škofja Loka",
      "address": "Grenc 57",
      "lat": 46.1730598,
      "lng": 14.3212867,
      "prices": {
        "95": 1.433,
        "dizel": 1.449,
        "98": null,
        "100": null,
        "dizel-premium": null,
        "avtoplin-lpg": 0.89,
        "KOEL": 1.049,
        "hvo": null,
        "cng": null,
        "lng": null
      },
      "distance": null,
      "direction": "",
      "open_hours": "6.00-22.00",
      "zip_code": "4220"
    },
    {
      "pk": 2307,
      "franchise": 19,
      "name": "Bencinski servis Sodražica",
      "address": "cesta Notranjskega odreda 56",
      "lat": 45.76375961303711,
      "lng": 14.63137435913086,
      "prices": {
        "95": 1.433,
        "dizel": 1.449,
        "98": null,
        "100": null,
        "dizel-premium": null,
        "avtoplin-lpg": null,
        "KOEL": 1.049,
        "hvo": null,
        "cng": null,
        "lng": null
      },
      "distance": null,
      "direction": "",
      "open_hours": "5.30-22.00",
      "zip_code": "1317"
    },
    {
      "pk": 2323,
      "franchise": 4,
      "name": "BS MOL KOPER LUKA",
      "address": "Vojkovo nabrežje 38",
      "lat": 45.55757,
      "lng": 13.75353,
      "prices": {
        "95": 1.433,
        "dizel": 1.449,
        "98": null,
        "100": 1.654,
        "dizel-premium": 1.609,
        "avtoplin-lpg": null,
        "KOEL": 1.049,
        "hvo": null,
        "cng": null,
        "lng": null
      },
      "distance": null,
      "direction": "Koper",
      "open_hours": "Ponedeljek, Torek, Sreda, Četrtek, Petek\n06:00-21:00\n\nSobota, Nedelja, Praznik\n06:00-14:00\n",
      "zip_code": "6000"
    },
    {
      "pk": 2324,
      "franchise": 19,
      "name": "LOGO BENCINSKI SERVIS d.o.o.",
      "address": "Ljubljanska cesta 62",
      "lat": 45.96802,
      "lng": 14.66103,
      "prices": {
        "95": 1.433,
        "dizel": 1.449,
        "98": 0.001,
        "100": 1.688,
        "dizel-premium": null,
        "avtoplin-lpg": null,
        "KOEL": 1.049,
        "hvo": null,
        "cng": null,
        "lng": null
      },
      "distance": null,
      "direction": "",
      "open_hours": "VSAK DAN 5,30 do 22,30",
      "zip_code": "1290"
    },
    {
      "pk": 2332,
      "franchise": 4,
      "name": "BS MOL RAVNE",
      "address": "Dobja vas 18b",
      "lat": 46.544943013174425,
      "lng": 14.939777713626901,
      "prices": {
        "95": 1.433,
        "dizel": 1.449,
        "98": null,
        "100": 1.654,
        "dizel-premium": 1.609,
        "avtoplin-lpg": 0.818,
        "KOEL": 1.049,
        "hvo": null,
        "cng": null,
        "lng": null
      },
      "distance": null,
      "direction": "",
      "open_hours": "Ponedeljek, Torek, Sreda, Četrtek, Petek\n05:00-23:00\n\nSobota\n06:00-23:00\n\nNedelja, Praznik\n07:00-22:00\n",
      "zip_code": "2390"
    },
    {
      "pk": 2334,
      "franchise": 5,
      "name": "SHELL ROGAŠKA SLATINA",
      "address": "Tržišče 12 b",
      "lat": 46.308,
      "lng": 15.5665,
      "prices": {
        "95": 1.433,
        "dizel": 1.449,
        "98": null,
        "100": 1.649,
        "dizel-premium": 1.629,
        "avtoplin-lpg": null,
        "KOEL": null,
        "hvo": null,
        "cng": null,
        "lng": null
      },
      "distance": null,
      "direction": "",
      "open_hours": "Ponedeljek - Sobota 6:00 - 22:00\r\n\r\nNedelja 8:00 - 20:00",
      "zip_code": "3250"
    },
    {
      "pk": 2335,
      "franchise": 5,
      "name": "SHELL ŠMARJE PRI JELŠAH",
      "address": "Celjska cesta 55",
      "lat": 46.22878,
      "lng": 15.504,
      "prices": {
        "95": 1.433,
        "dizel": 1.449,
        "98": null,
        "100": 1.649,
        "dizel-premium": 1.629,
        "avtoplin-lpg": null,
        "KOEL": null,
        "hvo": null,
        "cng": null,
        "lng": null
      },
      "distance": null,
      "direction": "",
      "open_hours": "Pon\tdo Sob \r\n06:00 - 21:00\r\nNed\t\r\n08:00 - 20:00",
      "zip_code": "3240"
    },
    {
      "pk": 2336,
      "franchise": 5,
      "name": "SHELL MIKLAVŽ",
      "address": "Ptujska cesta 135",
      "lat": 46.53067,
      "lng": 15.67062,
      "prices": {
        "95": 1.433,
        "dizel": 1.449,
        "98": null,
        "100": 1.649,
        "dizel-premium": 1.629,
        "avtoplin-lpg": null,
        "KOEL": null,
        "hvo": null,
        "cng": null,
        "lng": null
      },
      "distance": null,
      "direction": "",
      "open_hours": "Pon - Pet.:  6-22\r\nSob: 7-21 \r\nNed.: 8-20",
      "zip_code": "2204"
    },
    {
      "pk": 2337,
      "franchise": 5,
      "name": "SHELL LITIJA",
      "address": "Ljubljanska cesta 10 B",
      "lat": 46.057722042151795,
      "lng": 14.82292837241754,
      "prices": {
        "95": 1.433,
        "dizel": 1.449,
        "98": null,
        "100": 1.649,
        "dizel-premium": 1.629,
        "avtoplin-lpg": null,
        "KOEL": null,
        "hvo": null,
        "cng": null,
        "lng": null
      },
      "distance": null,
      "direction": "",
      "open_hours": "Pon-Sob; 5-23h \r\nNedelja: 8-20h",
      "zip_code": "1270"
    },
    {
      "pk": 2338,
      "franchise": 5,
      "name": "SHELL MURSKA SOBOTA Lendavska",
      "address": "Lendavska ulica 75",
      "lat": 46.667481,
      "lng": 16.176773,
      "prices": {
        "95": 1.433,
        "dizel": 1.449,
        "98": null,
        "100": 1.649,
        "dizel-premium": 1.629,
        "avtoplin-lpg": null,
        "KOEL": null,
        "hvo": null,
        "cng": null,
        "lng": null
      },
      "distance": null,
      "direction": "",
      "open_hours": "Pon-Sob; 5-23h Nedelja: 8-20h",
      "zip_code": "9000"
    },
    {
      "pk": 2339,
      "franchise": 5,
      "name": "SHELL ŽALEC",
      "address": "Mala Pirešica 22",
      "lat": 46.266973,
      "lng": 15.189107,
      "prices": {
        "95": 1.433,
        "dizel": 1.449,
        "98": null,
        "100": 1.649,
        "dizel-premium": 1.629,
        "avtoplin-lpg": null,
        "KOEL": null,
        "hvo": null,
        "cng": null,
        "lng": null
      },
      "distance": null,
      "direction": "",
      "open_hours": "0-24",
      "zip_code": "3301"
    },
    {
      "pk": 2340,
      "franchise": 5,
      "name": "SHELL KOZINA",
      "address": "Bazoviška cesta 18",
      "lat": 45.60911603335073,
      "lng": 13.93361083463169,
      "prices": {
        "95": 1.433,
        "dizel": 1.449,
        "98": null,
        "100": 1.649,
        "dizel-premium": 1.629,
        "avtoplin-lpg": null,
        "KOEL": null,
        "hvo": null,
        "cng": null,
        "lng": null
      },
      "distance": null,
      "direction": "",
      "open_hours": "",
      "zip_code": "6240"
    },
    {
      "pk": 2341,
      "franchise": 5,
      "name": "SHELL LJUTOMER",
      "address": "Kolodvorska ulica 2A",
      "lat": 46.52613423254767,
      "lng": 16.193609363823846,
      "prices": {
        "95": 1.433,
        "dizel": 1.449,
        "98": null,
        "100": 1.649,
        "dizel-premium": 1.629,
        "avtoplin-lpg": null,
        "KOEL": null,
        "hvo": null,
        "cng": null,
        "lng": null
      },
      "distance": null,
      "direction": "",
      "open_hours": "Mon-Sat: 6-22; Sun: 8-20",
      "zip_code": "9240"
    },
    {
      "pk": 2342,
      "franchise": 5,
      "name": "SHELL SENOŽETI",
      "address": "Senožeti 93, 1262 Senožeti",
      "lat": 46.088862059954124,
      "lng": 14.716871893530739,
      "prices": {
        "95": 1.433,
        "dizel": 1.449,
        "98": null,
        "100": 1.649,
        "dizel-premium": 1.629,
        "avtoplin-lpg": null,
        "KOEL": null,
        "hvo": null,
        "cng": null,
        "lng": null
      },
      "distance": null,
      "direction": "",
      "open_hours": "Mon-Sat: 6-22h, Sun: 8-20h",
      "zip_code": ""
    },
    {
      "pk": 2343,
      "franchise": 5,
      "name": "SHELL NOVO MESTO",
      "address": "Mirnopeška 4, 8000 Novo Mesto",
      "lat": 45.821327325964894,
      "lng": 15.150560521690572,
      "prices": {
        "95": 1.433,
        "dizel": 1.449,
        "98": null,
        "100": 1.649,
        "dizel-premium": 1.629,
        "avtoplin-lpg": null,
        "KOEL": null,
        "hvo": null,
        "cng": null,
        "lng": null
      },
      "distance": null,
      "direction": "",
      "open_hours": "Mon-Sat: 6-22h, Sun: 8-20h",
      "zip_code": "8000"
    },
    {
      "pk": 2344,
      "franchise": 5,
      "name": "SHELL ARCLIN",
      "address": "3211 Arclin – Škofja Vas, Arclin 101",
      "lat": 46.27879929325074,
      "lng": 15.300271376669105,
      "prices": {
        "95": 1.433,
        "dizel": 1.449,
        "98": null,
        "100": 1.649,
        "dizel-premium": 1.669,
        "avtoplin-lpg": null,
        "KOEL": null,
        "hvo": null,
        "cng": null,
        "lng": null
      },
      "distance": null,
      "direction": "",
      "open_hours": "Mon-Fri: 6-21h, Sat6-22h, Sun: 8-16h",
      "zip_code": "3211"
    },
    {
      "pk": 2345,
      "franchise": 5,
      "name": "SHELL DRNOVO",
      "address": "Velika Vas pri Krškem 69, 8273 Drnovo",
      "lat": 45.92022102331869,
      "lng": 15.47376189244999,
      "prices": {
        "95": 1.433,
        "dizel": 1.449,
        "98": null,
        "100": 1.649,
        "dizel-premium": 1.629,
        "avtoplin-lpg": null,
        "KOEL": null,
        "hvo": null,
        "cng": null,
        "lng": null
      },
      "distance": null,
      "direction": "",
      "open_hours": "Mon-Fri: 6-22h, Sat 6-20:30h, Sun 8-20h",
      "zip_code": "8273"
    },
    {
      "pk": 2346,
      "franchise": 5,
      "name": "SHELL CELJE MARIBORSKA",
      "address": "Mariborska 128",
      "lat": 46.24423316065561,
      "lng": 15.278462363239953,
      "prices": {
        "95": 1.433,
        "dizel": 1.449,
        "98": null,
        "100": 1.649,
        "dizel-premium": 1.679,
        "avtoplin-lpg": null,
        "KOEL": null,
        "hvo": null,
        "cng": null,
        "lng": null
      },
      "distance": null,
      "direction": "",
      "open_hours": "",
      "zip_code": "3000"
    },
    {
      "pk": 2347,
      "franchise": 5,
      "name": "SHELL PRESTRANEK",
      "address": "Reška cesta 18B",
      "lat": 45.728174292934355,
      "lng": 14.187886149162168,
      "prices": {
        "95": 1.433,
        "dizel": 1.449,
        "98": null,
        "100": 1.649,
        "dizel-premium": 1.629,
        "avtoplin-lpg": null,
        "KOEL": null,
        "hvo": null,
        "cng": null,
        "lng": null
      },
      "distance": null,
      "direction": "",
      "open_hours": "Summer (01.06.2023 to 30.9.2023): Mon-Sun 6:00-22:00 .Winter (01.10 to 31.5): Mon-Sat 6:00-22:00 ,Sun and holidays 9:00-20:00.",
      "zip_code": "6258"
    },
    {
      "pk": 2348,
      "franchise": 5,
      "name": "SHELL MURSKA SOBOTA Bakovska",
      "address": "Bakovska 31 A",
      "lat": 46.64580322249098,
      "lng": 16.16815983270674,
      "prices": {
        "95": 1.433,
        "dizel": 1.449,
        "98": null,
        "100": 1.649,
        "dizel-premium": null,
        "avtoplin-lpg": null,
        "KOEL": null,
        "hvo": null,
        "cng": null,
        "lng": null
      },
      "distance": null,
      "direction": "",
      "open_hours": "",
      "zip_code": "9000"
    },
    {
      "pk": 2349,
      "franchise": 5,
      "name": "SHELL SEZANA",
      "address": "Partizanska cesta 69A",
      "lat": 45.70519088779502,
      "lng": 13.861015699133779,
      "prices": {
        "95": 1.433,
        "dizel": 1.449,
        "98": null,
        "100": 1.649,
        "dizel-premium": 1.629,
        "avtoplin-lpg": null,
        "KOEL": null,
        "hvo": null,
        "cng": null,
        "lng": null
      },
      "distance": null,
      "direction": "",
      "open_hours": "",
      "zip_code": "6210"
    }
  ],
  "position": null
}
