{
  "count": 548,
  "next": "https://goriva.si/api/v1/search/?format=json&franchise=&name=&o=&page=11&position=&radius=",
  "previous": "https://goriva.si/api/v1/search/?format=json&franchise=&name=&o=&page=9&position=&radius=",
  "results": [
    {
      "pk": 2038,
      "franchise": 1,
      "name": "PETROL LJUBLJANA - ŠMARTINSKA 45",
      "address": "ŠMARTINSKA CESTA 45",
      "lat": 46.0630141,
      "lng": 14.52518352,
      "prices": {
        "95": 1.354,
        "dizel": 1.683,
        "98": null,
        "100": null,
        "dizel-premium": null,
        "avtoplin-lpg": null,
        "KOEL": null
      },
      "distance": null,
      "direction": "",
      "open_hours": "vsak delavnik 06:30-20:00\r\nsobote 07:00-13:00",
      "zip_code": "1000"
    },
    {
      "pk": 2039,
      "franchise": 1,
      "name": "PETROL LJUBLJANA - DUNAJSKA 130",
      "address": "DUNAJSKA CESTA 130",
      "lat": 46.078052,
      "lng": 14.512668,
      "prices": {
        "95": 1.354,
        "dizel": 1.683,
        "98": null,
        "100": 1.71,
        "dizel-premium": null,
        "avtoplin-lpg": null,
        "KOEL": null
      },
      "distance": null,
      "direction": "",
      "open_hours": "NON-STOP",
      "zip_code": "1000"
    },
    {
      "pk": 2040,
      "franchise": 1,
      "name": "PETROL LJUBLJANA - TRŽAŠKA 44",
      "address": "TRŽAŠKA CESTA 44",
      "lat": 46.04443147,
      "lng": 14.48517761,
      "prices": {
        "95": 1.354,
        "dizel": 1.683,
        "98": null,
        "100": 1.71,
        "dizel-premium": null,
        "avtoplin-lpg": null,
        "KOEL": 1.366
      },
      "distance": null,
      "direction": "",
      "open_hours": "vsak delavnik 07:00-21:00\r\nsobote 07:00-13:00",
      "zip_code": "1000"
    },
    {
      "pk": 2041,
      "franchise": 1,
      "name": "PETROL LJUBLJANA - TRŽAŠKA 131A",
      "address": "TRŽAŠKA CESTA 131A",
      "lat": 46.03869769,
      "lng": 14.47088774,
      "prices": {
        "95": 1.354,
        "dizel": 1.683,
        "98": null,
        "100": 1.71,
        "dizel-premium": null,
        "avtoplin-lpg": null,
        "KOEL": null
      },
      "distance": null,
      "direction": "",
      "open_hours": "vsak delavnik 06:00-21:00\r\nsobote 06:30-21:00\r\nnedelje in prazniki 08:00-20:00",
      "zip_code": "1000"
    },
    {
      "pk": 2042,
      "franchise": 1,
      "name": "PETROL LJUBLJANA - ZALOŠKA",
      "address": "ZALOŠKA CESTA 60A",
      "lat": 46.05587096,
      "lng": 14.53893203,
      "prices": {
        "95": 1.354,
        "dizel": 1.683,
        "98": null,
        "100": null,
        "dizel-premium": null,
        "avtoplin-lpg": null,
        "KOEL": 1.366
      },
      "distance": null,
      "direction": "",
      "open_hours": "NON-STOP",
      "zip_code": "1000"
    },
    {
      "pk": 2043,
      "franchise": 1,
      "name": "PETROL LJUBLJANA - RUDNIK VZHOD",
      "address": "DOLENJSKA CESTA 157A",
      "lat": 46.01990066,
      "lng": 14.54272853,
      "prices": {
        "95": 1.354,
        "dizel": 1.683,
        "98": null,
        "100": 1.71,
        "dizel-premium": null,
        "avtoplin-lpg": null,
        "KOEL": null
      },
      "distance": null,
      "direction": "",
      "open_hours": "vsak delavnik 05:30-21:00\r\nsobote 06:30-21:00\r\nnedelje in prazniki 07:30-21:00",
      "zip_code": "1000"
    },
    {
      "pk": 2044,
      "franchise": 1,
      "name": "PETROL LJUBLJANA - DUNAJSKA 133",
      "address": "DUNAJSKA CESTA 133",
      "lat": 46.07883295,
      "lng": 14.51209267,
      "prices": {
        "95": 1.354,
        "dizel": 1.683,
        "98": null,
        "100": 1.71,
        "dizel-premium": null,
        "avtoplin-lpg": null,
        "KOEL": null
      },
      "distance": null,
      "direction": "",
      "open_hours": "vsak delavnik 06:00-21:00\r\nsobote 07:00-21:00\r\nnedelje in prazniki 08:00-20:00",
      "zip_code": "1000"
    },
    {
      "pk": 2045,
      "franchise": 1,
      "name": "PETROL LJUBLJANA - ŠMARTINSKA 101",
      "address": "ŠMARTINSKA CESTA 101",
      "lat": 46.066152,
      "lng": 14.531219,
      "prices": {
        "95": 1.354,
        "dizel": 1.683,
        "98": null,
        "100": 1.71,
        "dizel-premium": null,
        "avtoplin-lpg": null,
        "KOEL": null
      },
      "distance": null,
      "direction": "",
      "open_hours": "vsak delavnik 05:30-22:00\r\nsobote 06:00-22:00\r\nnedelje in prazniki 07:00-22:00",
      "zip_code": "1000"
    },
    {
      "pk": 2046,
      "franchise": 1,
      "name": "PETROL LJUBLJANA - TRŽAŠKA 130",
      "address": "TRŽAŠKA CESTA 130",
      "lat": 46.03844761,
      "lng": 14.46933955,
      "prices": {
        "95": 1.354,
        "dizel": 1.683,
        "98": null,
        "100": 1.71,
        "dizel-premium": 2.19,
        "avtoplin-lpg": 0.999,
        "KOEL": null
      },
      "distance": null,
      "direction": "Ljubljana -> Koper",
      "open_hours": "NON-STOP",
      "zip_code": "1000"
    },
    {
      "pk": 2047,
      "franchise": 1,
      "name": "PETROL LJUBLJANA - CELOVŠKA 251",
      "address": "CELOVŠKA CESTA 251",
      "lat": 46.08132492,
      "lng": 14.47901865,
      "prices": {
        "95": 1.354,
        "dizel": 1.683,
        "98": null,
        "100": 1.71,
        "dizel-premium": null,
        "avtoplin-lpg": null,
        "KOEL": null
      },
      "distance": null,
      "direction": "",
      "open_hours": "vsak delavnik 06:00-21:00\r\nsobote 06:00-21:00\r\nnedelje in prazniki 07:00-21:00",
      "zip_code": "1000"
    },
    {
      "pk": 2048,
      "franchise": 1,
      "name": "PETROL LJUBLJANA - TIVOLSKA",
      "address": "TIVOLSKA CESTA 43",
      "lat": 46.0580724,
      "lng": 14.50344546,
      "prices": {
        "95": 1.354,
        "dizel": 1.683,
        "98": null,
        "100": 1.71,
        "dizel-premium": null,
        "avtoplin-lpg": 0.999,
        "KOEL": null
      },
      "distance": null,
      "direction": "",
      "open_hours": "NON-STOP",
      "zip_code": "1000"
    },
    {
      "pk": 2049,
      "franchise": 1,
      "name": "PETROL LJUBLJANA - ŠMARTINSKA 150",
      "address": "ŠMARTINSKA CESTA 150",
      "lat": 46.06921194,
      "lng": 14.54248084,
      "prices": {
        "95": 1.354,
        "dizel": 1.683,
        "98": null,
        "100": 1.71,
        "dizel-premium": null,
        "avtoplin-lpg": null,
        "KOEL": 1.366
      },
      "distance": null,
      "direction": "",
      "open_hours": "vsak delavnik 06:00-22:00\r\nsobote 06:00-22:00\r\nnedelje in prazniki 06:00-22:00",
      "zip_code": "1000"
    },
    {
      "pk": 2050,
      "franchise": 1,
      "name": "PETROL LJUBLJANA - CELOVŠKA 148",
      "address": "CELOVŠKA CESTA 148",
      "lat": 46.07303365,
      "lng": 14.48691567,
      "prices": {
        "95": 1.354,
        "dizel": 1.683,
        "98": null,
        "100": null,
        "dizel-premium": null,
        "avtoplin-lpg": null,
        "KOEL": null
      },
      "distance": null,
      "direction": "Ljubljana -> Kranj",
      "open_hours": "vsak delavnik 10:30-14:00\r\nsobote 10:30-13:00",
      "zip_code": "1000"
    },
    {
      "pk": 2051,
      "franchise": 1,
      "name": "PETROL LJUBLJANA - POLJE",
      "address": "ZALOŠKA CESTA 166",
      "lat": 46.05480571,
      "lng": 14.57560918,
      "prices": {
        "95": 1.354,
        "dizel": 1.683,
        "98": null,
        "100": null,
        "dizel-premium": null,
        "avtoplin-lpg": null,
        "KOEL": 1.366
      },
      "distance": null,
      "direction": "",
      "open_hours": "vsak delavnik 06:00-21:00\r\nsobote 07:00-20:00",
      "zip_code": "1260"
    },
    {
      "pk": 2052,
      "franchise": 1,
      "name": "PETROL LJUBLJANA - TRNOVO",
      "address": "RIHARJEVA ULICA 31",
      "lat": 46.03925962,
      "lng": 14.50003317,
      "prices": {
        "95": 1.354,
        "dizel": 1.683,
        "98": null,
        "100": 1.71,
        "dizel-premium": null,
        "avtoplin-lpg": null,
        "KOEL": null
      },
      "distance": null,
      "direction": "",
      "open_hours": "vsak delavnik 06:00-20:00\r\nsobote 06:00-13:00",
      "zip_code": "1000"
    },
    {
      "pk": 2053,
      "franchise": 1,
      "name": "PETROL DOBROVA",
      "address": "POLHOGRAJSKA CESTA 12",
      "lat": 46.0520304,
      "lng": 14.42151956,
      "prices": {
        "95": 1.354,
        "dizel": 1.683,
        "98": null,
        "100": null,
        "dizel-premium": null,
        "avtoplin-lpg": null,
        "KOEL": 1.366
      },
      "distance": null,
      "direction": "",
      "open_hours": "vsak delavnik 06:00-20:00\r\nsobote 06:00-13:00",
      "zip_code": "1356"
    },
    {
      "pk": 2054,
      "franchise": 1,
      "name": "PETROL PODPEČ",
      "address": "JEZERO 103",
      "lat": 45.973133,
      "lng": 14.422124,
      "prices": {
        "95": 1.354,
        "dizel": 1.683,
        "98": null,
        "100": null,
        "dizel-premium": null,
        "avtoplin-lpg": null,
        "KOEL": 1.366
      },
      "distance": null,
      "direction": "",
      "open_hours": "vsak delavnik 06:00-21:00\r\nsobote 07:00-20:00\r\nnedelje in prazniki 08:00-19:00",
      "zip_code": "1352"
    },
    {
      "pk": 2055,
      "franchise": 1,
      "name": "PETROL LJUBLJANA - ČRNUČE, DUNAJSKA",
      "address": "DUNAJSKA CESTA 460",
      "lat": 46.10458934,
      "lng": 14.54127278,
      "prices": {
        "95": 1.354,
        "dizel": 1.683,
        "98": null,
        "100": null,
        "dizel-premium": null,
        "avtoplin-lpg": null,
        "KOEL": null
      },
      "distance": null,
      "direction": "",
      "open_hours": "vsak delavnik 06:00-20:00\r\nsobote 07:00-13:00",
      "zip_code": "1231"
    },
    {
      "pk": 2056,
      "franchise": 1,
      "name": "PETROL LJUBLJANA - DUNAJSKA 70",
      "address": "DUNAJSKA CESTA 70",
      "lat": 46.06882986,
      "lng": 14.51074492,
      "prices": {
        "95": 1.354,
        "dizel": 1.683,
        "98": null,
        "100": 1.71,
        "dizel-premium": null,
        "avtoplin-lpg": null,
        "KOEL": null
      },
      "distance": null,
      "direction": "",
      "open_hours": "vsak delavnik 06:00-20:00\r\nsobote 07:00-13:00",
      "zip_code": "1000"
    },
    {
      "pk": 2057,
      "franchise": 1,
      "name": "PETROL LJUBLJANA - RUDNIK ZAHOD",
      "address": "DOLENJSKA CESTA 242F",
      "lat": 46.01990756,
      "lng": 14.54219888,
      "prices": {
        "95": 1.354,
        "dizel": 1.683,
        "98": null,
        "100": null,
        "dizel-premium": null,
        "avtoplin-lpg": null,
        "KOEL": null
      },
      "distance": null,
      "direction": "",
      "open_hours": "vsak delavnik 10:30-16:00\r\nsobote 10:30-13:00",
      "zip_code": "1000"
    },
    {
      "pk": 2058,
      "franchise": 1,
      "name": "PETROL ZADVOR",
      "address": "CESTA II. GRUPE ODREDOV 48",
      "lat": 46.03588324,
      "lng": 14.59614121,
      "prices": {
        "95": 1.354,
        "dizel": 1.683,
        "98": null,
        "100": null,
        "dizel-premium": null,
        "avtoplin-lpg": null,
        "KOEL": null
      },
      "distance": null,
      "direction": "",
      "open_hours": "vsak delavnik 07:00-19:00\r\nsobote 07:00-14:00",
      "zip_code": "1261"
    },
    {
      "pk": 2061,
      "franchise": 1,
      "name": "PETROL BLED - LJUBLJANSKA JUG",
      "address": "LJUBLJANSKA CESTA 30",
      "lat": 46.36846888,
      "lng": 14.11723896,
      "prices": {
        "95": 1.354,
        "dizel": 1.683,
        "98": null,
        "100": 1.71,
        "dizel-premium": null,
        "avtoplin-lpg": null,
        "KOEL": 1.366
      },
      "distance": null,
      "direction": "",
      "open_hours": "vsak delavnik 06:00-22:00\r\nsobote 06:00-23:00\r\nnedelje in prazniki 07:00-22:00",
      "zip_code": "4260"
    },
    {
      "pk": 2062,
      "franchise": 1,
      "name": "PETROL DOMŽALE - LJUBLJANSKA",
      "address": "LJUBLJANSKA CESTA 2",
      "lat": 46.13555764,
      "lng": 14.58035495,
      "prices": {
        "95": 1.354,
        "dizel": 1.683,
        "98": null,
        "100": 1.71,
        "dizel-premium": null,
        "avtoplin-lpg": null,
        "KOEL": 1.366
      },
      "distance": null,
      "direction": "",
      "open_hours": "vsak delavnik 06:00-20:00\r\nsobote 07:00-20:00\r\nnedelje in prazniki 08:00-12:00",
      "zip_code": "1230"
    },
    {
      "pk": 2063,
      "franchise": 1,
      "name": "PETROL KRANJ - ZLATO POLJE ZAHOD",
      "address": "KOROŠKA CESTA 53B",
      "lat": 46.247434,
      "lng": 14.349614,
      "prices": {
        "95": 1.354,
        "dizel": 1.683,
        "98": null,
        "100": 1.71,
        "dizel-premium": null,
        "avtoplin-lpg": null,
        "KOEL": null
      },
      "distance": null,
      "direction": "",
      "open_hours": "NON-STOP",
      "zip_code": "4000"
    },
    {
      "pk": 2064,
      "franchise": 1,
      "name": "PETROL LITIJA - LJUBLJANSKA",
      "address": "LJUBLJANSKA CESTA 8",
      "lat": 46.05721177,
      "lng": 14.82416328,
      "prices": {
        "95": 1.354,
        "dizel": 1.683,
        "98": null,
        "100": 1.71,
        "dizel-premium": null,
        "avtoplin-lpg": null,
        "KOEL": 1.366
      },
      "distance": null,
      "direction": "",
      "open_hours": "vsak delavnik 14:30-18:00\r\nsobote 10:00-13:00",
      "zip_code": "1270"
    }
  ],
  "position": null
}
