{
  "count": 548,
  "next": "https://goriva.si/api/v1/search/?format=json&franchise=&name=&o=&page=18&position=&radius=",
  "previous": "https://goriva.si/api/v1/search/?format=json&franchise=&name=&o=&page=16&position=&radius=",
  "results": [
    {
      "pk": 2235,
      "franchise": 4,
      "name": "BS MOL KRANJ",
      "address": "Ulica Boštjana Hladnika 4",
      "lat": 46.230565,
      "lng": 14.369373,
      "prices": {
        "95": 1.723,
        "dizel": 1.808,
        "98": null,
        "100": 2.129,
        "dizel-premium": 1.808,
        "avtoplin-lpg": 0.999,
        "KOEL": null
      },
      "distance": null,
      "direction": "",
      "open_hours": "PON - SOB 06:00 - 22:00\r\nNEDELJA IN PRAZNIKI 08:00 - 20:00",
      "zip_code": "4000"
    },
    {
      "pk": 2236,
      "franchise": 2,
      "name": "OMV PTUJ",
      "address": "Ormoška cesta 32",
      "lat": 46.41600383,
      "lng": 15.88503332,
      "prices": {
        "95": 1.723,
        "dizel": 1.808,
        "98": null,
        "100": 2.126,
        "dizel-premium": 1.998,
        "avtoplin-lpg": 0.998,
        "KOEL": null
      },
      "distance": null,
      "direction": "",
      "open_hours": "Pon-Ned 06:00-22:00",
      "zip_code": "2250"
    },
    {
      "pk": 2237,
      "franchise": 3,
      "name": "BS MAXEN TRŽIČ",
      "address": "Cesta Ste Marie aux Mines bš",
      "lat": 46.3583296,
      "lng": 14.2978288,
      "prices": {
        "95": 1.723,
        "dizel": 1.808,
        "98": null,
        "100": null,
        "dizel-premium": null,
        "avtoplin-lpg": null,
        "KOEL": null
      },
      "distance": null,
      "direction": "",
      "open_hours": "24/7",
      "zip_code": "4290"
    },
    {
      "pk": 2238,
      "franchise": 3,
      "name": "BS MAXEN KOPER",
      "address": "Ulica 15. maja bš",
      "lat": 45.5371584,
      "lng": 13.7323296,
      "prices": {
        "95": 1.723,
        "dizel": 1.808,
        "98": null,
        "100": null,
        "dizel-premium": null,
        "avtoplin-lpg": null,
        "KOEL": null
      },
      "distance": null,
      "direction": "",
      "open_hours": "24/7",
      "zip_code": "6000"
    },
    {
      "pk": 2239,
      "franchise": 3,
      "name": "BS MAXEN NIZKA",
      "address": "Nizka bš",
      "lat": 46.3157792,
      "lng": 14.9116624,
      "prices": {
        "95": 1.723,
        "dizel": 1.808,
        "98": null,
        "100": null,
        "dizel-premium": null,
        "avtoplin-lpg": null,
        "KOEL": null
      },
      "distance": null,
      "direction": "",
      "open_hours": "24/7",
      "zip_code": "3332"
    },
    {
      "pk": 2240,
      "franchise": 3,
      "name": "BS MAXEN GORNJA RADGONA",
      "address": "Ljutomerska cesta bš",
      "lat": 46.6636544,
      "lng": 16.0091968,
      "prices": {
        "95": 1.723,
        "dizel": 1.808,
        "98": null,
        "100": null,
        "dizel-premium": null,
        "avtoplin-lpg": null,
        "KOEL": null
      },
      "distance": null,
      "direction": "",
      "open_hours": "24/7",
      "zip_code": "9250"
    },
    {
      "pk": 2241,
      "franchise": 3,
      "name": "BS MAXEN BENEDIKT",
      "address": "Radgonska cesta bš",
      "lat": 46.6088,
      "lng": 15.893144,
      "prices": {
        "95": 1.723,
        "dizel": 1.808,
        "98": null,
        "100": null,
        "dizel-premium": null,
        "avtoplin-lpg": null,
        "KOEL": null
      },
      "distance": null,
      "direction": "",
      "open_hours": "24/7",
      "zip_code": "2234"
    },
    {
      "pk": 2242,
      "franchise": 3,
      "name": "BS MAXEN ČRNOMELJ",
      "address": "Ulica heroja Stariha bš",
      "lat": 45.5729152,
      "lng": 15.1853056,
      "prices": {
        "95": 1.723,
        "dizel": 1.808,
        "98": null,
        "100": null,
        "dizel-premium": null,
        "avtoplin-lpg": null,
        "KOEL": null
      },
      "distance": null,
      "direction": "",
      "open_hours": "24/7",
      "zip_code": "8340"
    },
    {
      "pk": 2243,
      "franchise": 3,
      "name": "BS MAXEN GRAD",
      "address": "Grad bš",
      "lat": 46.7978208,
      "lng": 16.0886368,
      "prices": {
        "95": 1.723,
        "dizel": 1.808,
        "98": null,
        "100": null,
        "dizel-premium": null,
        "avtoplin-lpg": null,
        "KOEL": null
      },
      "distance": null,
      "direction": "",
      "open_hours": "24/7",
      "zip_code": "9264"
    },
    {
      "pk": 2244,
      "franchise": 3,
      "name": "BS MAXEN DOLNJI LAKOŠ",
      "address": "Glavna ulica bš",
      "lat": 46.5525523,
      "lng": 16.430912,
      "prices": {
        "95": 1.723,
        "dizel": 1.808,
        "98": null,
        "100": null,
        "dizel-premium": null,
        "avtoplin-lpg": null,
        "KOEL": null
      },
      "distance": null,
      "direction": "",
      "open_hours": "24/7",
      "zip_code": "9220"
    },
    {
      "pk": 2245,
      "franchise": 3,
      "name": "BS MAXEN SELNICA OB DRAVI",
      "address": "Spodnja Selnica bš",
      "lat": 46.5546048,
      "lng": 15.5078896,
      "prices": {
        "95": 1.723,
        "dizel": 1.808,
        "98": null,
        "100": null,
        "dizel-premium": null,
        "avtoplin-lpg": null,
        "KOEL": null
      },
      "distance": null,
      "direction": "",
      "open_hours": "24/7",
      "zip_code": "2352"
    },
    {
      "pk": 2246,
      "franchise": 3,
      "name": "BS MAXEN LJUBLJANA-BTC",
      "address": "Argentinska ulica bš",
      "lat": 46.0665824,
      "lng": 14.5488544,
      "prices": {
        "95": 1.723,
        "dizel": 1.808,
        "98": null,
        "100": null,
        "dizel-premium": null,
        "avtoplin-lpg": null,
        "KOEL": null
      },
      "distance": null,
      "direction": "",
      "open_hours": "24/7",
      "zip_code": "1000"
    },
    {
      "pk": 2247,
      "franchise": 3,
      "name": "BS MAXEN METLIKA",
      "address": "Mestni log bš",
      "lat": 45.6406592,
      "lng": 15.3216016,
      "prices": {
        "95": 1.723,
        "dizel": 1.808,
        "98": null,
        "100": null,
        "dizel-premium": null,
        "avtoplin-lpg": null,
        "KOEL": null
      },
      "distance": null,
      "direction": "",
      "open_hours": "24/7",
      "zip_code": "8330"
    },
    {
      "pk": 2248,
      "franchise": 3,
      "name": "BS MAXEN PREDGRAD",
      "address": "Paka pri Predgradu bš",
      "lat": 45.5025792,
      "lng": 15.0603264,
      "prices": {
        "95": 1.723,
        "dizel": 1.808,
        "98": null,
        "100": null,
        "dizel-premium": null,
        "avtoplin-lpg": null,
        "KOEL": null
      },
      "distance": null,
      "direction": "",
      "open_hours": "24/7",
      "zip_code": "8342"
    },
    {
      "pk": 2249,
      "franchise": 3,
      "name": "BS MAXEN MEŽICA",
      "address": "Mariborska cesta bš",
      "lat": 46.5236096,
      "lng": 14.8536976,
      "prices": {
        "95": 1.723,
        "dizel": 1.808,
        "98": null,
        "100": null,
        "dizel-premium": null,
        "avtoplin-lpg": null,
        "KOEL": null
      },
      "distance": null,
      "direction": "",
      "open_hours": "24/7",
      "zip_code": "2392"
    },
    {
      "pk": 2250,
      "franchise": 3,
      "name": "BS MAXEN KOČEVJE",
      "address": "Mrtvice bš",
      "lat": 45.6768128,
      "lng": 14.827288,
      "prices": {
        "95": 1.723,
        "dizel": 1.808,
        "98": null,
        "100": null,
        "dizel-premium": null,
        "avtoplin-lpg": null,
        "KOEL": null
      },
      "distance": null,
      "direction": "",
      "open_hours": "24/7",
      "zip_code": "1332"
    },
    {
      "pk": 2251,
      "franchise": 3,
      "name": "BS MAXEN ŽUŽEMBERK",
      "address": "Grajski trg bš",
      "lat": 45.8333056,
      "lng": 14.9274912,
      "prices": {
        "95": 1.723,
        "dizel": 1.808,
        "98": null,
        "100": null,
        "dizel-premium": null,
        "avtoplin-lpg": null,
        "KOEL": null
      },
      "distance": null,
      "direction": "",
      "open_hours": "24/7",
      "zip_code": "8360"
    },
    {
      "pk": 2252,
      "franchise": 3,
      "name": "BS MAXEN VELENJE",
      "address": "Črnova bš",
      "lat": 46.347808,
      "lng": 15.1495248,
      "prices": {
        "95": 1.723,
        "dizel": 1.808,
        "98": null,
        "100": null,
        "dizel-premium": null,
        "avtoplin-lpg": null,
        "KOEL": null
      },
      "distance": null,
      "direction": "",
      "open_hours": "24/7",
      "zip_code": "3320"
    },
    {
      "pk": 2253,
      "franchise": 3,
      "name": "BS MAXEN LOGATEC",
      "address": "Tržaška cesta bš",
      "lat": 45.9388,
      "lng": 14.2365616,
      "prices": {
        "95": 1.723,
        "dizel": 1.808,
        "98": null,
        "100": null,
        "dizel-premium": null,
        "avtoplin-lpg": null,
        "KOEL": null
      },
      "distance": null,
      "direction": "",
      "open_hours": "24/7",
      "zip_code": "1370"
    },
    {
      "pk": 2254,
      "franchise": 3,
      "name": "BS MAXEN RIBNICA",
      "address": "Gorenjska cesta bš",
      "lat": 45.7490272,
      "lng": 14.7190224,
      "prices": {
        "95": 1.723,
        "dizel": 1.808,
        "98": null,
        "100": null,
        "dizel-premium": null,
        "avtoplin-lpg": null,
        "KOEL": null
      },
      "distance": null,
      "direction": "",
      "open_hours": "24/7",
      "zip_code": "1310"
    },
    {
      "pk": 2255,
      "franchise": 3,
      "name": "BS MAXEN NOVO MESTO",
      "address": "Mirnopeška cesta bš",
      "lat": 45.8202208,
      "lng": 15.1490384,
      "prices": {
        "95": 1.723,
        "dizel": 1.808,
        "98": null,
        "100": null,
        "dizel-premium": null,
        "avtoplin-lpg": null,
        "KOEL": null
      },
      "distance": null,
      "direction": "",
      "open_hours": "24/7",
      "zip_code": "8000"
    },
    {
      "pk": 2256,
      "franchise": 3,
      "name": "BS MAXEN KRANJ",
      "address": "Cesta Staneta Žagarja bš",
      "lat": 46.24224,
      "lng": 14.3774704,
      "prices": {
        "95": 1.723,
        "dizel": 1.808,
        "98": null,
        "100": null,
        "dizel-premium": null,
        "avtoplin-lpg": null,
        "KOEL": null
      },
      "distance": null,
      "direction": "",
      "open_hours": "24/7",
      "zip_code": "4000"
    },
    {
      "pk": 2257,
      "franchise": 3,
      "name": "BS MAXEN AJDOVŠČINA",
      "address": "Vipavska cesta bš",
      "lat": 45.8809344,
      "lng": 13.9107888,
      "prices": {
        "95": 1.723,
        "dizel": 1.808,
        "98": null,
        "100": null,
        "dizel-premium": null,
        "avtoplin-lpg": null,
        "KOEL": null
      },
      "distance": null,
      "direction": "",
      "open_hours": "24/7",
      "zip_code": "5270"
    },
    {
      "pk": 2266,
      "franchise": 5,
      "name": "SHELL MARIBOR RETAIL",
      "address": "TURNEJEVA ULICA 35",
      "lat": 46.449892,
      "lng": 15.651698,
      "prices": {
        "95": 1.723,
        "dizel": 1.808,
        "98": null,
        "100": 2.171,
        "dizel-premium": null,
        "avtoplin-lpg": null,
        "KOEL": null
      },
      "distance": null,
      "direction": "",
      "open_hours": "24 ur - črpalka z osebjem",
      "zip_code": "2313"
    },
    {
      "pk": 2267,
      "franchise": 6,
      "name": "EKO-NAFTA d.o.o.",
      "address": "Trimlini 65A, 9220 Lendava - Lendva",
      "lat": 46.5429019,
      "lng": 16.4429144,
      "prices": {
        "95": 1.723,
        "dizel": 1.808,
        "98": null,
        "100": 2.15,
        "dizel-premium": null,
        "avtoplin-lpg": null,
        "KOEL": 1.542
      },
      "distance": null,
      "direction": "",
      "open_hours": "Ponedeljek-petek\r\n6:00-17:00\r\n\r\nSobota, nedelja, prazniki\r\nZaprto",
      "zip_code": "9220"
    }
  ],
  "position": null
}
