{
  "count": 552,
  "next": "https://goriva.si/api/v1/search/?format=json&franchise=&name=&o=&page=3&position=&radius=",
  "previous": "https://goriva.si/api/v1/search/?format=json&franchise=&name=&o=&position=&radius=",
  "results": [
    {
      "pk": 802,
      "franchise": 2,
      "name": "BS MOL KOMEN",
      "address": "Komen 119a",
      "lat": 45.816868,
      "lng": 13.745429,
      "prices": {
        "95": 1.384,
        "dizel": 1.404,
        "98": null,
        "100": 1.608,
        "dizel-premium": null,
        "avtoplin-lpg": null,
        "KOEL": null,
        "hvo": null,
        "cng": null,
        "lng": null
      },
      "distance": null,
      "direction": "",
      "open_hours": "Januar / Februar / Marec / Oktober / November / December\n07:00-19:00\n\nApril / Maj / Junij / Julij / Avgust / September\n07:00-20:00\n",
      "zip_code": "6223"
    },
    {
      "pk": 804,
      "franchise": 2,
      "name": "BS MOL KOPER BONIFIKA",
      "address": "Istrska cesta 14",
      "lat": 45.5404,
      "lng": 13.7263,
      "prices": {
        "95": 1.384,
        "dizel": 1.404,
        "98": null,
        "100": 1.658,
        "dizel-premium": 1.611,
        "avtoplin-lpg": 0.818,
        "KOEL": null,
        "hvo": null,
        "cng": null,
        "lng": null
      },
      "distance": null,
      "direction": "Portorož",
      "open_hours": "00:00-23:59\n",
      "zip_code": "6000"
    },
    {
      "pk": 806,
      "franchise": 2,
      "name": "BS MOL KOPER ANKARANSKA",
      "address": "Ankaranska c. 5d",
      "lat": 45.545957,
      "lng": 13.742681,
      "prices": {
        "95": 1.384,
        "dizel": 1.404,
        "98": null,
        "100": 1.608,
        "dizel-premium": null,
        "avtoplin-lpg": null,
        "KOEL": null,
        "hvo": null,
        "cng": null,
        "lng": null
      },
      "distance": null,
      "direction": "",
      "open_hours": "Ponedeljek, Torek, Sreda, Četrtek, Petek, Sobota\n06:00-22:00\n\nJanuar / Februar / Marec / April / Maj / Oktober / November / December\nNedelja, Praznik\n08:00-20:00\n\nJunij / Julij / Avgust / September\nNedelja, Praznik\n07:00-22:00\n",
      "zip_code": "6000"
    },
    {
      "pk": 807,
      "franchise": 2,
      "name": "BS MOL KOPER ŠMARSKA",
      "address": "Šmarska c. 4a",
      "lat": 45.530207,
      "lng": 13.734777,
      "prices": {
        "95": 1.384,
        "dizel": 1.404,
        "98": null,
        "100": 1.608,
        "dizel-premium": 1.561,
        "avtoplin-lpg": null,
        "KOEL": 1.007,
        "hvo": null,
        "cng": null,
        "lng": null
      },
      "distance": null,
      "direction": "",
      "open_hours": "06:00-22:00\n",
      "zip_code": "6000"
    },
    {
      "pk": 808,
      "franchise": 2,
      "name": "BS MOL KOZINA",
      "address": "Mestni trg 7",
      "lat": 45.60807,
      "lng": 13.93501,
      "prices": {
        "95": 1.384,
        "dizel": 1.404,
        "98": null,
        "100": 1.608,
        "dizel-premium": null,
        "avtoplin-lpg": null,
        "KOEL": null,
        "hvo": null,
        "cng": null,
        "lng": null
      },
      "distance": null,
      "direction": "",
      "open_hours": "06:00-23:00\n",
      "zip_code": "6240"
    },
    {
      "pk": 809,
      "franchise": 2,
      "name": "BS MOL KRANJ PRIMSKOVO",
      "address": "Cesta Staneta Žagarja 53c",
      "lat": 46.24277,
      "lng": 14.371453,
      "prices": {
        "95": 1.384,
        "dizel": 1.404,
        "98": null,
        "100": 1.608,
        "dizel-premium": null,
        "avtoplin-lpg": null,
        "KOEL": null,
        "hvo": null,
        "cng": null,
        "lng": null
      },
      "distance": null,
      "direction": "",
      "open_hours": "Ponedeljek, Torek, Sreda, Četrtek, Petek, Sobota\n06:00-22:00\n\nNedelja, Praznik\n07:00-22:00\n",
      "zip_code": "4000"
    },
    {
      "pk": 810,
      "franchise": 2,
      "name": "BS MOL KRŠKO",
      "address": "C.Krških žrtev 131a",
      "lat": 45.94429,
      "lng": 15.48733,
      "prices": {
        "95": 1.384,
        "dizel": 1.404,
        "98": null,
        "100": 1.608,
        "dizel-premium": 1.561,
        "avtoplin-lpg": null,
        "KOEL": 1.007,
        "hvo": null,
        "cng": null,
        "lng": null
      },
      "distance": null,
      "direction": "",
      "open_hours": "06:00-22:00\n",
      "zip_code": "8270"
    },
    {
      "pk": 811,
      "franchise": 2,
      "name": "BS MOL KRVAVI POTOK",
      "address": "Krvavi potok 1",
      "lat": 45.61885,
      "lng": 13.910126,
      "prices": {
        "95": 1.384,
        "dizel": 1.404,
        "98": null,
        "100": null,
        "dizel-premium": null,
        "avtoplin-lpg": null,
        "KOEL": null,
        "hvo": null,
        "cng": null,
        "lng": null
      },
      "distance": null,
      "direction": "Trst",
      "open_hours": "Ponedeljek, Torek, Sreda, Četrtek, Petek, Sobota\n07:00-19:00\n",
      "zip_code": "6240"
    },
    {
      "pk": 812,
      "franchise": 2,
      "name": "BS MOL LAZARET",
      "address": "Jadranska c. 1",
      "lat": 45.59283,
      "lng": 13.72411,
      "prices": {
        "95": 1.384,
        "dizel": 1.404,
        "98": null,
        "100": 1.608,
        "dizel-premium": 1.561,
        "avtoplin-lpg": null,
        "KOEL": null,
        "hvo": null,
        "cng": null,
        "lng": null
      },
      "distance": null,
      "direction": "Koper",
      "open_hours": "Januar / Februar / Marec / Oktober / November / December\n07:00-20:00\n\nApril / Maj\n07:00-21:00\n\nJunij / Julij / Avgust / September\n07:00-22:00\n",
      "zip_code": "6280"
    },
    {
      "pk": 813,
      "franchise": 2,
      "name": "BS MOL LESCE",
      "address": "Hraška c. 17",
      "lat": 46.365369,
      "lng": 14.16032,
      "prices": {
        "95": 1.384,
        "dizel": 1.404,
        "98": null,
        "100": 1.608,
        "dizel-premium": null,
        "avtoplin-lpg": null,
        "KOEL": null,
        "hvo": null,
        "cng": null,
        "lng": null
      },
      "distance": null,
      "direction": "",
      "open_hours": "06:00-22:00\n",
      "zip_code": "4248"
    },
    {
      "pk": 814,
      "franchise": 2,
      "name": "BS MOL LIPOVCI",
      "address": "Lipovci 243b",
      "lat": 46.625125,
      "lng": 16.214332,
      "prices": {
        "95": 1.384,
        "dizel": 1.404,
        "98": null,
        "100": 1.608,
        "dizel-premium": null,
        "avtoplin-lpg": null,
        "KOEL": 1.007,
        "hvo": null,
        "cng": null,
        "lng": null
      },
      "distance": null,
      "direction": "",
      "open_hours": "Ponedeljek, Torek, Sreda, Četrtek, Petek\n05:00-22:00\n\nSobota\n06:00-22:00\n\nNedelja, Praznik\n07:00-21:00\n",
      "zip_code": "9231"
    },
    {
      "pk": 815,
      "franchise": 2,
      "name": "BS MOL LITIJA",
      "address": "Zasavska c. 1",
      "lat": 46.058713,
      "lng": 14.832858,
      "prices": {
        "95": 1.384,
        "dizel": 1.404,
        "98": null,
        "100": 1.608,
        "dizel-premium": 1.561,
        "avtoplin-lpg": null,
        "KOEL": 1.007,
        "hvo": null,
        "cng": null,
        "lng": null
      },
      "distance": null,
      "direction": "",
      "open_hours": "Ponedeljek, Torek, Sreda, Četrtek, Petek\n06:00-22:00\n\nSobota\n07:00-21:00\n\nNedelja, Praznik\n08:00-20:00\n",
      "zip_code": "1270"
    },
    {
      "pk": 816,
      "franchise": 2,
      "name": "BS MOL LJUBLJANA LETALIŠKA",
      "address": "Letališka c. 33b",
      "lat": 46.062474,
      "lng": 14.570349,
      "prices": {
        "95": 1.384,
        "dizel": 1.404,
        "98": null,
        "100": 1.608,
        "dizel-premium": null,
        "avtoplin-lpg": null,
        "KOEL": null,
        "hvo": null,
        "cng": null,
        "lng": null
      },
      "distance": null,
      "direction": "",
      "open_hours": "Ponedeljek, Torek, Sreda, Četrtek, Petek\n06:00-21:00\n\nSobota\n07:00-20:00\n",
      "zip_code": "1000"
    },
    {
      "pk": 817,
      "franchise": 2,
      "name": "BS MOL LJUBLJANA LITIJSKA",
      "address": "Litijska c. 40",
      "lat": 46.047401,
      "lng": 14.546097,
      "prices": {
        "95": 1.384,
        "dizel": 1.404,
        "98": null,
        "100": 1.608,
        "dizel-premium": 1.561,
        "avtoplin-lpg": null,
        "KOEL": null,
        "hvo": null,
        "cng": null,
        "lng": null
      },
      "distance": null,
      "direction": "",
      "open_hours": "06:00-22:00\n",
      "zip_code": "1000"
    },
    {
      "pk": 818,
      "franchise": 2,
      "name": "BS MOL LJUBLJANA CELOVŠKA",
      "address": "Celovška c. 455",
      "lat": 46.09891,
      "lng": 14.460958,
      "prices": {
        "95": 1.384,
        "dizel": 1.404,
        "98": null,
        "100": 1.608,
        "dizel-premium": null,
        "avtoplin-lpg": null,
        "KOEL": null,
        "hvo": null,
        "cng": null,
        "lng": null
      },
      "distance": null,
      "direction": "",
      "open_hours": "00:00-23:59\n",
      "zip_code": "1210"
    },
    {
      "pk": 819,
      "franchise": 2,
      "name": "BS MOL LJUBLJANA ZALOŠKA JUG",
      "address": "Zaloška 158",
      "lat": 46.05628,
      "lng": 14.562775,
      "prices": {
        "95": 1.384,
        "dizel": 1.404,
        "98": null,
        "100": 1.608,
        "dizel-premium": 1.561,
        "avtoplin-lpg": null,
        "KOEL": null,
        "hvo": null,
        "cng": null,
        "lng": null
      },
      "distance": null,
      "direction": "",
      "open_hours": "06:00-22:00\n",
      "zip_code": "1000"
    },
    {
      "pk": 820,
      "franchise": 2,
      "name": "BS MOL LJUBLJANA ZALOŠKA SEVER",
      "address": "Zaloška 157",
      "lat": 46.056444,
      "lng": 14.55814,
      "prices": {
        "95": 1.384,
        "dizel": 1.404,
        "98": null,
        "100": 1.608,
        "dizel-premium": 1.561,
        "avtoplin-lpg": null,
        "KOEL": null,
        "hvo": null,
        "cng": null,
        "lng": null
      },
      "distance": null,
      "direction": "",
      "open_hours": "06:00-22:00\n",
      "zip_code": "1000"
    },
    {
      "pk": 823,
      "franchise": 2,
      "name": "BS MOL LOPATA JUG",
      "address": "Lopata 80",
      "lat": 46.261718,
      "lng": 15.22071,
      "prices": {
        "95": 1.384,
        "dizel": 1.404,
        "98": null,
        "100": 1.729,
        "dizel-premium": 1.689,
        "avtoplin-lpg": null,
        "KOEL": null,
        "hvo": null,
        "cng": null,
        "lng": null
      },
      "distance": null,
      "direction": "Maribor",
      "open_hours": "00:00-23:59\n",
      "zip_code": "3000"
    },
    {
      "pk": 824,
      "franchise": 2,
      "name": "BS MOL MARINA PORTOROŽ",
      "address": "Seča 188",
      "lat": 45.50526,
      "lng": 13.59658,
      "prices": {
        "95": 1.384,
        "dizel": 1.404,
        "98": null,
        "100": null,
        "dizel-premium": null,
        "avtoplin-lpg": null,
        "KOEL": null,
        "hvo": null,
        "cng": null,
        "lng": null
      },
      "distance": null,
      "direction": "",
      "open_hours": "Januar / Februar / Marec / April / Oktober / November / December\n08:00-14:00\n\nMaj / Junij / Julij / Avgust / September\n09:00-19:00\n",
      "zip_code": "6320"
    },
    {
      "pk": 826,
      "franchise": 2,
      "name": "BS MOL LUCIJA",
      "address": "Seča 188 a",
      "lat": 45.50043,
      "lng": 13.61022,
      "prices": {
        "95": 1.384,
        "dizel": 1.404,
        "98": null,
        "100": 1.608,
        "dizel-premium": null,
        "avtoplin-lpg": null,
        "KOEL": 1.007,
        "hvo": null,
        "cng": null,
        "lng": null
      },
      "distance": null,
      "direction": "",
      "open_hours": "06:00-22:00\n",
      "zip_code": "6320"
    },
    {
      "pk": 828,
      "franchise": 2,
      "name": "BS MOL LUKOVICA",
      "address": "Koseskega cesta 4",
      "lat": 46.16606,
      "lng": 14.6896,
      "prices": {
        "95": 1.384,
        "dizel": 1.404,
        "98": null,
        "100": 1.729,
        "dizel-premium": 1.689,
        "avtoplin-lpg": 0.848,
        "KOEL": null,
        "hvo": null,
        "cng": null,
        "lng": null
      },
      "distance": null,
      "direction": "Ljubljana",
      "open_hours": "00:00-23:59\n",
      "zip_code": "1225"
    },
    {
      "pk": 832,
      "franchise": 2,
      "name": "BS MOL MARINA KOPER",
      "address": "Kopališko nabrežje 5",
      "lat": 45.55049,
      "lng": 13.72786,
      "prices": {
        "95": 1.384,
        "dizel": 1.404,
        "98": null,
        "100": null,
        "dizel-premium": null,
        "avtoplin-lpg": null,
        "KOEL": null,
        "hvo": null,
        "cng": null,
        "lng": null
      },
      "distance": null,
      "direction": "Koper",
      "open_hours": "Ponedeljek, Torek, Sreda, Četrtek, Petek, Sobota\n08:00-18:00\n\nNedelja, Praznik\n09:00-18:00\n",
      "zip_code": "6000"
    },
    {
      "pk": 834,
      "franchise": 2,
      "name": "BS MOL NOVA VAS",
      "address": "Nova vas 1a",
      "lat": 45.773401,
      "lng": 14.504678,
      "prices": {
        "95": 1.384,
        "dizel": 1.404,
        "98": null,
        "100": 1.608,
        "dizel-premium": null,
        "avtoplin-lpg": null,
        "KOEL": 1.007,
        "hvo": null,
        "cng": null,
        "lng": null
      },
      "distance": null,
      "direction": "",
      "open_hours": "Januar / Februar / Marec / Oktober / November / December\nPonedeljek, Torek, Sreda, Četrtek, Petek, Sobota\n07:00-19:00\n\nApril / Maj / Junij / Julij / Avgust / September\nPonedeljek, Torek, Sreda, Četrtek, Petek, Sobota\n07:00-20:00\n",
      "zip_code": "1385"
    },
    {
      "pk": 835,
      "franchise": 2,
      "name": "BS MOL NOVO MESTO LEVIČNIKOVA",
      "address": "Levičnikova c. 4",
      "lat": 45.804054,
      "lng": 15.181842,
      "prices": {
        "95": 1.384,
        "dizel": 1.404,
        "98": null,
        "100": 1.608,
        "dizel-premium": 1.561,
        "avtoplin-lpg": null,
        "KOEL": 1.007,
        "hvo": null,
        "cng": null,
        "lng": null
      },
      "distance": null,
      "direction": "",
      "open_hours": "06:00-22:00\n",
      "zip_code": "8000"
    },
    {
      "pk": 836,
      "franchise": 2,
      "name": "BS MOL NOVO MESTO LJUBLJANSKA",
      "address": "Ljubljanska cesta 11",
      "lat": 45.8139,
      "lng": 15.153116666666667,
      "prices": {
        "95": 1.384,
        "dizel": 1.404,
        "98": null,
        "100": 1.608,
        "dizel-premium": 1.561,
        "avtoplin-lpg": null,
        "KOEL": null,
        "hvo": null,
        "cng": null,
        "lng": null
      },
      "distance": null,
      "direction": "",
      "open_hours": "Ponedeljek, Torek, Sreda, Četrtek, Petek, Sobota\n06:00-22:00\n\nNedelja, Praznik\n08:00-20:00\n",
      "zip_code": "8000"
    }
  ],
  "position": null
}
